cityname,lat,lng
california/north-counties/santa-rosa/,,
california/north-counties/napa/,,
california/north-counties/san-rafael/,,
california/north-counties/sebastopol/,,
california/coast-and-central-bay/oakland/,,
california/coast-and-central-bay/oakland-west/,,
california/coast-and-central-bay/san-francisco/,,
california/coast-and-central-bay/san-pablo/,,
california/eastern-district/concord/,,
california/eastern-district/livermore/,,
california/south-central-bay/redwood-city/,,
california/coast-and-central-bay/laney-college-fwy/,,
losangeles/los-angeles-north-main-street/,-118.22676,34.06653
losangeles/north-long-beach-long-beach/,33.82376,-118.18916
losangeles/reseda/,34.1992,-118.53275
losangeles/burbank/,34.17599,-118.31701
losangeles/glendora-laurel/,-117.85038,34.14437
losangeles/santa-clarita-placerita/,34.38337,-118.52839
california/riverside/rubidoux-mission-blvd/,-117.41595,33.99952
california/riverside/riverside-magnolia/,-117.40056,33.94586
california/riverside/lake-elsinore-w-flint-street/,33.67653,-117.33104
california/riverside/banning-airport/,33.92077,-116.85841
california/san-bernardino/upland/,-117.62906,34.10367
california/san-bernardino/lake-gregory-crestline/,34.24313,-117.2723
california/calaveras/san-andreas-gold-strike-road/,38.20185,-120.68028
california/mariposa/yosemite-village-visitor-center/,37.74871,-119.58709
california/nevada/truckee-fire-station/,39.32782,-120.18459
california/plumas/chester/,40.30961,-121.22779
california/plumas/portola-nevada-street/,39.80587,-120.46866
california/plumas/quincy-n-church-street/,39.93957,-120.94438
california/kern/mojave/,35.05045,-118.14778
california/monterey/king-city-pearl/,-121.12596,36.20902
california/santa-cruz/santa-cruz-soquel-avenue/,36.98401,-121.99097
california/los-angeles/south-long-beach/,33.7924,-118.17525
california/riverside/mira-loma-van-buren/,33.99636,-117.4924
california/riverside/temecula-lake-skinner/,33.58333,-117.08333
california/san-luis-obispo/cdf-arroyo-grande/,35.04676,-120.58777
california/san-luis-obispo/atascadero-lewis-avenue/,-120.66799,35.49153
california/san-luis-obispo/nipomo-guadalupe-road/,-120.56389,35.02079
california/san-luis-obispo/san-luis-obispo-higuera-street/,35.25651,-120.6693
california/santa-barbara/goleta-fairview/,34.44551,-119.82845
california/santa-barbara/lompoc-south-h-street/,34.63782,-120.4575
california/santa-barbara/santa-barbara-national-guard-armory/,34.42775,-119.69091
california/santa-barbara/santa-maria-south-broadway/,34.94287,-120.43561
california/ventura/el-rio-rio-mesa-school--2/,34.25238,-119.14318
california/ventura/ojai-east-ojai-av/,34.44804,-119.23131
california/ventura/piru-pacific/,34.40426,-118.80991
california/san-diego/alpine-victoria-drive/,32.84231,-116.76784
california/san-diego/camp-pendleton/,33.21701,-117.39616
california/san-diego/el-cajon-redwood-avenue/,32.7912,-116.9421
california/san-diego/san-diego-beardsley/,32.70148,-117.14962
california/marin/point-reyes/,38.12275,-122.90836
california/fresno/clovis-n-villa-avenue/,36.81931,-119.71639
california/fresno/fresno-drummond-street/,36.70556,-119.74139
california/fresno/fresno-garland/,36.78538,-119.77321
california/fresno/huron-4th-street/,36.19865,-120.10117
california/fresno/tranquility/,36.63434,-120.38234
california/kern/bakersfield-california-avenue/,35.35662,-119.06261
california/kern/lebec/,34.84155,-118.86058
california/kings/hanford-s-irwin-street/,36.31572,-119.64323
california/madera/madera-pump-yard/,36.86719,-120.01011
california/merced/merced-coffee-road/,37.28177,-120.43368
california/san-joaquin/manteca-ams/,-121.24779,37.79338
california/san-joaquin/stockton-hazelton/,37.95075,-121.26897
california/san-joaquin/tracy-airport/,37.68268,-121.44238
california/stanislaus/modesto-14th-street/,37.64217,-120.99421
california/tulare/porterville/,36.03179,-119.05505
california/tulare/visalia/,36.33252,-119.29095
california/imperial/bombay-beach/,33.35264,-115.73419
california/imperial/calexico-ethel-street/,32.67618,-115.48307
california/imperial/naval-test-base/,33.16923,-115.85593
california/imperial/sonny-bono/,33.17638,-115.6231
california/riverside/salton-sea-park/,33.50896,-115.91954
california/riverside/torres-martinez/,33.51831,-116.07538
california/butte/chico-east-avenue/,39.76168,-121.84047
california/butte/gridley/,39.32756,-121.66881
california/colusa/colusa-sunrise-blvd/,39.18919,-121.99887
california/glenn/willows-colusa/,39.53387,-122.19083
california/placer/roseville-n-sunrise-ave/,38.74643,-121.26498
california/sacramento/elk-grove-bruceville-road/,38.30256,-121.42083
california/sacramento/folsom-natoma-street/,38.68329,-121.16444
california/sacramento/sacramento-del-paso-manor/,38.61374,-121.36801
california/sacramento/sacramento-1309-t-street/,38.56844,-121.49311
california/shasta/anderson-north-street/,40.45318,-122.29883
california/solano/vacaville-ulatis-drive/,38.35655,-121.94986
california/sutter/yuba-city/,39.13876,-121.61872
california/yolo/davis-ucd-campus/,-121.7734,38.53455
california/yolo/woodland-gibson-road/,38.66121,-121.73269
california/stanislaus/turlock-s-minaret-street/,37.48822,-120.83592
california/orange/anaheim-loara-school/,-117.9385,33.83061
california/butte/paradise-theater/,39.77919,-121.59135
california/ventura/thousand-oaks-moorpark-road/,34.21014,-118.8705
california/mendocino/ukiah-library/,39.15047,-123.20655
california/imperial/salton-city/,33.27275,-115.90062
california/san-benito/hollister-fairview-road/,36.84343,-121.3621
california/imperial/niland-english-road/,33.21349,-115.54514
california/mendocino/willits-justice-center/,39.41174,-123.35264
california/monterey/salinas--3/,-121.62327,36.69426
california/alameda/livermore-rincon/,-121.7842,37.6875
california/alameda/oakland-east/,37.74306,-122.16994
california/alameda/oakland-west/,37.8148,-122.28236
california/contra-costa/concord/,37.936,-122.0262
california/contra-costa/san-pablo-rumrill/,37.9604,-122.35685
california/marin/san-rafael/,37.9723,-122.52011
california/napa/napa-jefferson-avenue/,38.31097,-122.29616
california/san-francisco/san-francisco-arkansas-street/,37.76595,-122.39902
california/san-mateo/redwood-city/,37.48293,-122.20348
california/santa-clara/san-jose-jackson-st/,37.34849,-121.89494
california/santa-clara/gilroy-9th-street/,36.99958,-121.57466
california/madera/madera-city/,36.95326,-120.03419
california/plumas/portola-gulling-street/,39.81336,-120.47069
california/kern/kernville-forest-service/,35.7533,-118.417
california/placer/tahoe-city-221-fairway-drive/,39.16602,-120.14883
california/placer/auburn-11645-atwood-road/,-121.09959,38.93568
california/placer/lincoln-1445-1st-street/,38.88563,-121.30208
california/alameda/oakland-laney-college/,-122.263356,37.793635
california/fresno/pinehurst-forest-service/,36.69731,-119.0188
california/tulare/springville-forest-service/,36.1344,-118.811
california/solano/rio-vista-ys/,38.167275,-121.6884167
california/sonoma/sebastopol-103-morris-street/,38.403765,-122.818294
california/san-diego/otay-mesa-donovan-correctional-facility/,32.57944,-116.92944
california/inyo/keeler-cerro-gordo-road/,36.48785,-117.87104
california/placer/tahoe-city-221-fairway-drive/,39.16602,-120.14883
california/placer/auburn-atwood-rd/,38.93568,-121.09959
california/solano/rio-vista-st-francis-way/,38.167275,-121.6884167
california/san-luis-obispo/atascadero-lift-station--5/,35.49453,-120.66617
california/santa-clara/san-jose-knox-avenue/,37.338202,-121.849892
california/tehama/red-bluff-walnut-st/,40.17088,-122.25556
california/inyo/bishop-line/,37.366389,-118.35
california/san-luis-obispo/atascadero-lift-station--5/,35.49453,-120.66617
california/alameda/berkeley-aquatic-park/,37.864731,-122.302703
california/sonoma/sebastopol/,38.40377,-122.81829
california/placer/lincoln-1445-1st-st./,38.88559,-121.30199
newyork/,40.7127837,-74.0059413
buffalo/,42.8864468,-78.8783689
usa/newyork/,40.7143528,-74.0059731
usa/newyork/is-52/,40.816101,-73.902199
usa/newyork/white-plains/,41.0522,-73.7642
usa/newyork/suffolk-county/,40.9848784,-72.6151169
usa/newyork/queens-college/,,
usa/newyork/ccny/,40.8197,-73.9481
usa/newyork/is-74/,-73.886703,40.814701
usa/newyork/ps-314/,40.641819,-74.018707
usa/newyork/maspeth/,40.7269,-73.8933
usa/newyork/eisenhower-park/,-73.5869,40.7447
usa/newyork/is-143/,40.8492,-73.9319
usa/newyork/division-street/,-73.995,40.7142
usa/newyork/ps-274/,40.694401,-73.928596
usa/newyork/fresh-kills-west/,40.5802,-74.1994
usa/newyork/albany-county-hd/,42.6425,-73.7547
usa/newyork/utica/,-75.225,43.0994
usa/newyork/buffalo/,42.8781,-78.8094
usa/newyork/rochester/,-77.5481,43.1461
usa/newyork/newburgh/,41.4994,-74.0097
usa/newyork/pinnacle/,42.0972,-77.2103
usa/newyork/rockland-county/,41.182079,-74.028191
usa/newyork/ps-19/,40.73,-73.984459
usa/newyork/peace-bridge-busti-ave/,42.8985717,-78.8928852
usa/newyork/tonawanda-ii/,-78.8993,42.9981
usa/newyork/port-richmond/,40.6354914,-74.1254641
usa/newyork/morrisania/,40.83606,-73.92009
usa/new-york/holtsville/,40.8278,-73.0575
usa/mexico/colegio-de-bachilleres/,,
usa/mexico/universidad-autonoma-de-baja-california/,,
usa/mexico/cuajimalpa/,,
usa/mexico/chalco/,,
usa/arizona/douglas-red-cross/,31.3492,-109.539683
usa/arizona/nogales-post-office/,31.337204,-110.936722
usa/arizona/alamo-lake/,34.243889,-113.558611
usa/arizona/childrens-park-site/,32.2953,-110.9822
usa/arizona/phoenix-jlg-supersite/,33.503601,-112.095001
usa/arizona/yuma-supersite/,32.690277,-114.614441
usa/alabama/wylam/,-86.9242,33.4997
usa/alabama/corner/,33.8017,-86.9425
usa/alabama/no.-bham/,33.5531,-86.815
usa/alabama/mcadory/,33.3311,-87.0036
usa/indiana/anderson-eastside-elem.-sch/,40.125557,-85.652222
usa/indiana/evansville-buena-vista/,38.0133,-87.5772
usa/indiana/indpls-i-70-e/,39.787933,-86.13088
usa/indiana/indpls-washington-park/,39.8108,-86.1147
usa/indiana/bloomington/,39.159372,-86.504747
usa/indiana/gary-iitri/,41.6067,-87.3047
usa/indiana/indpls-w.18th-st/,-86.2147,39.7889
usa/kentucky/fivco/,38.4592,-82.6339
usa/kentucky/jprecc/,37.0581,-88.5725
usa/kentucky/newtwn/,-84.5,38.065
usa/minnesota/lakeville-near-road/,44.706123,-93.285803
usa/minnesota/brainerd/,46.3944,-94.1433
usa/minnesota/west-duluth/,46.743889,-92.166946
usa/minnesota/minneapolis-near-road/,44.9653,-93.2551
usa/minnesota/minneapolis-lyndale/,44.946341,-93.277353
usa/minnesota/virginia/,47.5212,-92.5393
usa/minnesota/detroit-lakes/,-95.8467,46.8511
usa/minnesota/grand-portage/,47.9721,-89.6908
usa/minnesota/st.-michael/,45.2108,-93.6686
usa/minnesota/st.-cloud/,45.55,-94.1333
usa/minnesota/rochester/,43.9947,-92.4497
usa/minnesota/minneapolis-phillips/,44.9536,-93.2581
usa/minnesota/ely/,47.9464,-91.4953
usa/minnesota/blaine/,-93.2139,45.1425
usa/minnesota/st.-paul-harding-h.s./,44.9594,-93.0356
usa/missouri/broadway-south/,38.5425,-90.263611
usa/missouri/blair-street/,38.656449,-90.198548
usa/missouri/ladue/,38.650259,-90.350463
usa/missouri/blue-ridge-i-70/,39.047911,-94.450513
usa/missouri/forest-park/,-90.281144,38.631057
usa/missouri/arnold/,38.448581,-90.398436
usa/missouri/liberty/,39.303056,-94.376389
usa/missouri/missouri-state-university/,37.199541,-93.284874
usa/missouri/eldospgs/,-94.03474,37.70097
usa/missouri/troost/,39.104722,-94.570556
usa/missouri/branch-street/,38.65643,-90.18977
usa/missouri/st.-joseph/,-94.858333,39.741667
usa/missouri/rg_south/,38.75976,-94.57997
usa/north-carolina/garinger/,-80.7831,35.2411
usa/north-dakota/beulah-north/,47.2986,-101.7669
usa/nebraska/ncore/,41.2474,-95.9731
usa/nebraska/llchd-bam/,40.8125,-96.683098
usa/oklahoma/moore/,35.32,-97.4883
usa/oklahoma/glenpool/,35.9525,-96.0033
usa/oklahoma/mcalester/,34.906082,-95.794128
usa/oklahoma/burneyville/,33.8825,-97.275803
usa/oklahoma/seiling/,36.1589,-98.9353
usa/oklahoma/lawton-north/,34.632999,-98.428802
usa/oklahoma/tulsa/,36.206699,-95.976402
usa/tennessee/riverside/,35.0508,-85.2931
usa/vermont/burlington/,44.476101,-73.210297
usa/vermont/bennington/,42.887501,-73.249702
usa/vermont/rutland/,-72.98246,43.608528
usa/vermont/underhill/,44.528389,-72.868973
usa/west-virginia/moundsville/,39.9158,-80.7342
usa/alabama/hoover/,-86.8167,33.3864
usa/alabama/montg/,32.4069,-86.2564
usa/arkansas/adeq-dsr/,34.6811,-92.3283
usa/arkansas/sprngdle/,-94.1167,36.1797
usa/arkansas/marion/,35.1967,-90.1911
usa/arkansas/parr/,34.7561,-92.2758
usa/arkansas/el-dorado/,33.215,-92.6689
usa/delaware/killens/,38.9847,-75.5556
usa/delaware/seaford/,38.6444,-75.6131
usa/illinois/chi_com/,41.7547,-87.7136
usa/illinois/bondville/,40.052241,-88.372549
usa/illinois/peoria_j/,40.6978,-89.5889
usa/illinois/gc_mad/,-90.1397,38.7045
usa/illinois/chi_sp/,41.9136,-87.7239
usa/illinois/east-st.-louis/,38.611893,-90.160614
usa/illinois/west-union/,39.210883,-87.668416
usa/illinois/braidwd/,-88.1906,41.2222
usa/illinois/decatur/,-88.9256,39.8669
usa/illinois/alsip/,41.6708,-87.7325
usa/illinois/cary/,42.2211,-88.2411
usa/illinois/northbrk/,-87.7994,42.1406
usa/indiana/new-albany/,38.3081,-85.8342
usa/kansas/cedrbluf/,38.7703,-99.7636
usa/kansas/whlthdpt/,37.7011,-97.3139
usa/kansas/wy/kc/,39.1175,-94.6356
usa/kansas/heritage-park/,38.8386,-94.7464
usa/kentucky/haz2/,-83.2203,37.2831
usa/kentucky/cannons-lane/,38.2286,-85.6544
usa/kentucky/watson/,-85.8961,38.0608
usa/kentucky/mammoth-cave-np/,37.1314,-86.1481
usa/kentucky/baskett/,37.8714,-87.4633
usa/kentucky/etown2/,37.7064,-85.8517
usa/kentucky/owenpri/,37.7808,-87.0756
usa/kentucky/southwick-community-center/,38.2317,-85.8156
usa/kentucky/nku/,39.0217,-84.4744
usa/maryland/fair-hill/,39.701099,-75.860001
usa/maryland/oldtown/,39.2981,-76.604698
usa/maryland/rockville/,39.114399,-77.106903
usa/maryland/horn-point/,38.5876,-76.1408
usa/maryland/piney-run/,39.705799,-79.011902
usa/maryland/hu-beltsville/,39.055302,-76.878304
usa/maryland/millington/,39.305199,-75.797203
usa/maryland/padonia/,39.462002,-76.631599
usa/maryland/edgewood/,39.41,-76.2967
usa/mississippi/hernando/,34.8275,-89.9889
usa/mississippi/jaxfs19/,32.3883,-90.1406
usa/mississippi/hattiesburg/,31.322779,-89.287498
usa/mississippi/jackson-ncore/,32.329111,-90.182722
usa/north-carolina/durham-armory/,35.9919,-78.8964
usa/north-carolina/dillard/,35.3692,-77.9939
usa/north-carolina/cherrygr/,36.3028,-79.4667
usa/north-carolina/clemmons-middle/,36.0261,-80.3419
usa/north-carolina/grier-middle-school/,35.253101,-81.153297
usa/north-carolina/montclaire/,35.1514,-80.8669
usa/north-carolina/bded/,35.6075,-82.5833
usa/north-carolina/hattieaven/,36.1106,-80.2267
usa/north-carolina/w-owen-sch/,35.041401,-78.953102
usa/north-dakota/williston/,48.152822,-103.639583
usa/north-dakota/hannover/,47.1858,-101.4281
usa/north-dakota/lostwood-nwr/,48.641899,-102.402199
usa/north-dakota/bismarck-residential/,-100.7681,46.8253
usa/north-dakota/fargo-nw/,46.933601,-96.854698
usa/new-hampshire/miller-state-park/,42.8619,-71.8789
usa/new-hampshire/keene/,42.930599,-72.277802
usa/new-hampshire/portsmouth/,-70.748014,43.075367
usa/new-hampshire/londonderry-moose-hill/,-71.380173,42.862537
usa/ohio/erie/,-83.54625,41.644067
usa/ohio/preble-county/,39.83562,-84.72049
usa/ohio/painesville-jfs/,41.726811,-81.242156
usa/ohio/sycamore/,39.2787,-84.36612
usa/ohio/colerain/,39.21494,-84.69086
usa/ohio/taft/,-84.50404,39.12886
usa/ohio/barr-school/,41.463071,-82.114261
usa/ohio/columbus-fairgrounds/,40.002734,-82.994404
usa/ohio/canton/,40.800797,-81.372853
usa/ohio/lebanon/,39.42689,-84.20077
usa/ohio/batavia/,-84.1441,39.0828
usa/ohio/youngstown-head-start/,41.095938,-80.658467
usa/ohio/g.t.craig/,41.492191,-81.678552
usa/ohio/dayton-sinclair/,39.758235,-84.197375
usa/ohio/steubenville/,40.366452,-80.615691
usa/ohio/east-high-school/,41.063526,-81.468956
usa/ohio/yankee-road/,39.472436,-84.394952
usa/ohio/amanda--elementary/,-84.407675,39.478849
usa/ohio/chippewa-lake/,41.0604,-81.9239
usa/ohio/yellow-springs/,-83.88711,39.80834
usa/ohio/springfield-pm/,39.92882,-83.80949
usa/ohio/lima/,40.771,-84.0539
usa/ohio/warren-laird-ave./,41.231167,-80.801914
usa/ohio/ironton-odot/,38.508114,-82.659301
usa/oklahoma/roland/,35.408138,-94.524414
usa/oklahoma/miami/,36.9222,-94.8389
usa/oklahoma/north-okc/,35.612801,-97.472198
usa/oklahoma/stilwell-castnet---ncore/,-94.669701,35.750599
usa/rhode-island/narragansett/,41.4942,-71.4219
usa/rhode-island/e-providence/,41.840302,-71.361702
usa/rhode-island/providence/,41.8081,-71.415
usa/south-carolina/greenville-esc/,34.843899,-82.414597
usa/south-carolina/long-creek/,34.805,-83.237503
usa/south-carolina/chesterfield/,34.615299,-80.198898
usa/south-carolina/tk-gregg/,34.955601,-81.924797
usa/south-carolina/trenton/,33.7397,-81.8536
usa/south-carolina/williams-middle-school/,34.2143,-79.7673
usa/south-carolina/ashton/,-80.964996,33.007801
usa/south-carolina/charleston-public-works/,32.791,-79.959
usa/south-dakota/wind-cave/,43.557613,-103.483658
usa/south-dakota/research-farm/,44.348604,-96.807299
usa/south-dakota/credit-union/,44.087397,-103.273777
usa/south-dakota/uc1/,42.751518,-96.707208
usa/south-dakota/badlands/,43.746944,-101.941109
usa/south-dakota/watertown/,44.89965,-97.128802
usa/tennessee/dyerteom/,36.0528,-89.3819
usa/tennessee/air-lab/,35.9803,-83.9306
usa/tennessee/athens/,35.4511,-84.5992
usa/tennessee/lockland/,36.1767,-86.7386
usa/tennessee/jackson/,35.6567,-88.8092
usa/tennessee/lawrence/,35.1158,-87.47
usa/tennessee/shelby-farms/,35.151588,-89.85022
usa/tennessee/hville/,36.2975,-86.6525
usa/alabama/decatur/,-86.9706,34.5286
usa/delaware/mlk/,39.7394,-75.5581
usa/indiana/elkhart-prairie-st./,41.656944,-85.96833
usa/indiana/ogden-dunes/,41.6175,-87.1992
usa/indiana/fort-wayne-beacon-st/,41.094965,-85.101816
usa/indiana/terre-haute-lafayette-ave/,39.4861,-87.4014
usa/indiana/kokomo-e.-vaile-ave./,40.481349,-86.109718
usa/indiana/larwill/,41.169722,-85.629444
usa/indiana/lafayette-greenbush-st/,40.4316,-86.8525
usa/indiana/south-bend-shields-dr/,41.6967,-86.2147
usa/indiana/fishers/,-85.939546,39.960884
usa/indiana/columbus-rocky-ford-rd/,39.237457,-85.891332
usa/maryland/hagerstown/,39.565601,-77.721901
usa/mississippi/gport-yc/,30.39,-89.0497
usa/montana/butte-greely-school/,46.002399,-112.500893
usa/montana/billings-st.-lukes/,45.782181,-108.511528
usa/montana/sidney-oil-field/,47.803421,-104.485619
usa/montana/malta/,48.317507,-107.862471
usa/montana/seeley-elementary-school/,-113.476182,47.17563
usa/montana/missoula-boyd-park/,46.842297,-114.020549
usa/montana/hamilton-ps-46/,46.243621,-114.158889
usa/montana/birney/,45.366151,-106.48982
usa/montana/rossiter-pump-house/,46.6588,-112.0131
usa/montana/libby-courthouse/,48.3841,-115.548
usa/montana/bozeman-high-school/,45.683765,-111.056282
usa/montana/lewistown/,47.048537,-109.455315
usa/montana/west-yellowstone-park-ent--2/,44.657014,-111.089618
usa/montana/broadus/,-105.37028,45.440295
usa/north-carolina/leggett/,35.9889,-77.5867
usa/north-carolina/kenansvl/,34.9547,-77.9608
usa/north-carolina/candor-fro/,-79.8635,35.2632
usa/north-carolina/jamesvil/,35.8111,-76.9067
usa/north-dakota/dunn-center/,-102.526398,47.320301
usa/rhode-island/w-greenwich/,41.615,-71.7197
usa/tennessee/look-rock-gsmnp/,35.6322,-83.9422
usa/tennessee/golf_ln/,36.5144,-87.3278
usa/tennessee/kingsport/,36.5408,-82.5217
usa/tennessee/maryvill/,35.7683,-83.9422
usa/wyoming/south-pass/,42.5275,-108.7203
usa/wyoming/converse-county-mobile/,42.766972,-105.303528
usa/wyoming/cheyenne-/,41.18222,-104.778336
usa/wyoming/sinclair-mobile/,41.783389,-107.119184
usa/wyoming/pinedale/,-109.788,42.9288
usa/north-carolina/bryson/,35.4356,-83.4436
usa/alabama/ward/,32.36253,-88.27792
usa/montana/french-town-beckwith/,47.012907,-114.224273
usa/north-carolina/castle-h/,34.3561,-77.8617
usa/new-hampshire/lebanon/,43.627399,-72.310204
usa/south-carolina/cape-romain/,32.941002,-79.656998
usa/kentucky/smiths-grove/,37.04926,-86.21487
usa/north-carolina/marion/,35.6875,-81.9936
usa/maryland/howard-county-near-road/,39.143197,-76.846192
usa/north-carolina/burdens-creek/,-78.8747,35.889402
usa/north-carolina/millbrook-ncore/,35.856098,-78.574203
usa/oklahoma/ponca-city/,36.697189,-97.081278
usa/south-carolina/irmo/,34.051102,-81.154999
usa/north-carolina/mendnhal/,36.1092,-79.8011
usa/kentucky/near-road/,38.1935,-85.7121
usa/north-carolina/blackstone/,35.4325,-79.2887
usa/ohio/new-albany/,40.0845,-82.81552
usa/alabama/phnx-cty-pm/,32.474239,-85.000038
usa/rhode-island/near-road/,41.829495,-71.417457
usa/montana/ncore/,46.8505,-111.987164
usa/illinois/cicero2/,41.864329,-87.748826
usa/alabama/huntsville-old-airport/,-86.591698,34.6917
usa/tennessee/harriman/,35.9386,-84.5439
usa/minnesota/red-lake/,47.878159,-95.029172
usa/kentucky/pike2001/,37.4828,-82.5353
usa/alabama/chick./,30.7697,-88.0875
usa/illinois/maryvill/,38.7267,-89.959198
usa/kentucky/bates/,38.1372,-85.5783
usa/minnesota/red-lake-nation/,47.878159,-95.029172
usa/minnesota/fond-du-lac/,46.713694,-92.511722
usa/missouri/hillcrest-hs/,-93.299692,37.256069
usa/mississippi/hinds-cc/,32.346905,-90.225928
usa/nebraska/2912-coffey/,41.133317,-95.956078
usa/ohio/london/,39.78819,-83.47606
usa/ohio/springfield/,40.00103,-83.80456
usa/oklahoma/mobile-kickapoo/,35.4884,-97.090278
usa/south-carolina/jackson/,33.342201,-81.788597
usa/minnesota/st.-paul-payne-phalen/,-93.082984,44.971539
usa/north-carolina/pittagct/,35.638599,-77.358002
usa/alabama/gadsden/,33.991341,-85.992653
usa/north-carolina/johnston/,35.5,-78.4375
usa/minnesota/duluth-michigan-st/,46.77107,-92.11732
usa/south-dakota/pierre/,44.373786,-100.287269
usa/ohio/west-union/,38.79471,-83.533988
usa/alabama/shuttlesworth/,33.565278,-86.796389
usa/minnesota/st.-anthony-park/,44.973096,-93.199879
usa/oklahoma/healdton/,34.256901,-97.474197
usa/north-carolina/hickory/,35.73,-81.37
usa/wyoming/fort-laramie-national-historic-site/,42.209167,-104.548611
usa/north-carolina/lwattowr/,35.8142,-80.2633
usa/north-dakota/trnp-nu/,47.6011,-103.2642
usa/wyoming/pinedale-gaseous/,42.8698,-109.8708
usa/wyoming/cheyenne-mobile/,41.13,-104.75
usa/wyoming/torrington-mobile/,42.06,-104.17
usa/oklahoma/copan/,36.908115,-95.88235
usa/oregon/lakeview/,42.189215,-120.353969
usa/oregon/roseburg/,43.2266,-123.36479
usa/oregon/grants-pass/,-123.348466,42.434149
usa/oregon/cave-junction/,42.1617,-123.64835
usa/oregon/medford/,42.31411,-122.87923
usa/oregon/albany/,44.61569,-123.091457
usa/oregon/baker-city/,44.78822,-117.8446
usa/oregon/beaverton/,45.4702,-122.8159
usa/oregon/enterprise/,45.426351,-117.296066
usa/oregon/hermiston/,45.828968,-119.262991
usa/oregon/hillsboro/,45.528501,-122.972398
usa/oregon/john-day/,44.417999,-118.951302
usa/oregon/la-grande/,45.339,-118.095206
usa/oregon/lyons/,44.778743,-122.617048
usa/oregon/pendleton/,45.652231,-118.823033
usa/oregon/prineville/,44.299787,-120.844773
usa/oregon/salem/,-123.005934,44.943114
usa/oregon/shady-cove/,42.623225,-122.810158
usa/oregon/silverton/,45.014998,-122.790382
usa/oregon/sisters/,44.2921,-121.5555
usa/oregon/sweet-home/,44.3958,-122.7305
usa/oregon/bend/,44.063916,-121.312554
usa/oregon/portland/,45.496641,-122.602877
usa/oregon/burns/,43.58925,-119.048302
usa/oregon/madras/,44.6306,-121.131599
usa/oregon/carus-spangler-rd./,45.25928,-122.588151
usa/oregon/sauvie-island/,45.768531,-122.7721
usa/oregon/government-camp-multorpor-visibility/,45.28845,-121.782775
usa/oregon/mt.-fanny/,45.309556,-117.733582
usa/oregon/crater-lake-maintenance/,42.895957,-122.13593
usa/oregon/tualatin-i-5-roadway/,45.3505567,-122.793927
usa/oregon/oakridge-willamette-activity-center/,43.74436,-122.480506
usa/oregon/cottage-grove-city-shops/,43.7995,-123.0535
usa/oregon/eugene-amazon-park/,44.0263,-123.08377
usa/oregon/eugene-highway-99/,44.067223,-123.14135
usa/lane/willamette-activity-center-oakridge/,43.74436,-122.4805
usa/lane/amazon-park/,44.02627,-123.0838
usa/lane/cottage-grove-city-shops/,43.79957,-123.0535
usa/lane/highway-99/,44.06633,-123.1398
usa/lane/wilkes-drive/,44.11576,-123.1211
usa/washington/aberdeen/division-st/,46.97228,-123.83173
usa/washington/airway-heights/w-12th-ave/,47.64476,-117.58913
usa/washington/anacortes-202--avenue/,48.52059,-122.61428
usa/washington/anacortes/bartholomew-rd/,48.4654,-122.56
usa/washington/bellevue/bellevue-way/,47.61311,-122.20161
usa/washington/bellingham/yew-st/,48.76278,-122.44028
usa/washington/bremerton/spruce-ave/,47.592675,-122.62739
usa/washington/cheeka-peak/,48.29786,-124.62491
usa/washington/chehalis/market-blvd/,46.66409,-122.96732
usa/washington/clarkston/13th-st/,-117.060445,46.425416
usa/washington/colbert/greenbluff-rd/,47.8082264,-117.34327
usa/washington/colville/oak-st-s/,48.54296,-117.90326
usa/washington/custer/loomis/,48.95074,-122.55441
usa/washington/darrington/fir-st/,48.2468,-121.6031
usa/washington/dayton/w-main-st/,46.318,-117.985
usa/washington/ellensburg/ruby-st/,46.99364,-120.545
usa/washington/harrah-n-harrah-rd/,46.4085229,-120.5441734
usa/washington/kennewick/metaline/,46.21835,-119.20152
usa/washington/kent/central-and-james/,-122.23195,47.38614
usa/washington/lacey/college-st/,47.02938,-122.82161
usa/washington/lacrosse/hill-st/,46.8153,-117.8739
usa/washington/lake-forest-park/town-center/,47.75452,-122.28034
usa/washington/leavenworth/evans-st/,47.59886,-120.6647
usa/washington/longview/30th-ave/,46.139443,-122.961944
usa/washington/lynnwood/212-ult/,47.8064,-122.3167
usa/washington/marysville/7th-ave/,48.054315,-122.171529
usa/washington/mesa/pepiot-way/,46.5754,-119.0021
usa/washington/moses-lake/balsam-st/,47.1303,-119.2737
usa/washington/mt-vernon/s-second-st/,48.4102,-122.3376
usa/washington/neah-bay-2/makah-tribe/,48.366058,-124.610045
usa/washington/north-bend/north-bend-way/,-121.77278,47.49022
usa/washington/oak-harbor/sw-6th/,48.2944,-122.66
usa/washington/oakville/chehalis-tribe/,46.818292,-123.197083
usa/washington/omak/colville-tribe/,-119.51896,48.39999
usa/washington/port-angeles/w-14th-st/,48.11697,-123.46555
usa/washington/port-townsend/san-juan-ave/,48.12919,-122.77897
usa/washington/pullman/dexter-se/,46.7244,-117.18014
usa/washington/raymond/commercial/,46.68562,-123.7285563
usa/washington/ritzville/alder-st/,47.128,-118.3819
usa/washington/rosalia/josephine-st/,-117.36856,47.23136
usa/washington/seattle/beacon-hill/,47.5713,-122.3057
usa/washington/seattle/duwamish/,47.559975,-122.338265
usa/washington/seattle/olive-st/,47.6171136,-122.3044689
usa/washington/seattle/queen-anne-hill/,47.6331,-122.3628
usa/washington/seattle/south-park/,-122.3208,47.53091
usa/washington/shelton/w-franklin/,47.21355,-123.10081
usa/washington/spokane/augusta-ave/,47.672482,-117.36485
usa/washington/spokane/college-street/,47.663,-117.4283
usa/washington/spokane/e-broadway-ave/,47.663962,-117.25765
usa/washington/spokane/monroe-st/,47.69983,-117.42631
usa/washington/tacoma/alexander-ave/,47.2656,-122.385
usa/washington/tacoma/l-street/,47.18631,-122.45154
usa/washington/toppenish/yakama-tribe/,46.38024,-120.33266
usa/washington/tulalip/tulalip-tribe/,48.069,-122.275
usa/washington/twisp/glover-st/,48.36451,-120.12113
usa/washington/vancouver/fourth-plain-rd/,45.668065,-122.549247
usa/washington/wellpinit/spokane-tribe/,47.88528,-117.98865
usa/washington/wenatchee/fifth-st/,47.43061,-120.34195
usa/washington/winthrop/chewuch-rd/,48.47724,-120.19057
usa/washington/white-swan/yakama-tribe/,46.37543,-120.72932
usa/washington/yacolt/yacolt-rd/,45.86639,-122.40889
usa/washington/yakima/4th-ave/,46.59495,-120.51228
usa/washington/cheney/turnbull/,47.4164,-117.52982
usa/washington/harrah/yakama-tribe/,46.4452069,-120.438234
usa/washington/vancouver/ne-vancouver/,45.61071,-122.535634
usa/washington/seattle/10th-and-weller/,47.597222,-122.319722
usa/washington/chelan/woodin-ave/,47.83861,-120.02306
usa/washington/naches/hwy-12/,46.7297583,-120.7038697
usa/washington/vancouver-ne-84th-ave/,45.64336,-122.58737
usa/washington/port-angeles/e-5th-st/,48.115,-123.436434
usa/washington/taholah/quinault-tribe/,47.33976,-124.29178
usa/washington/colville/e-1st-st/,48.54469,-117.903222
usa/washington/sunnyside/s-16th-st/,46.32033,-119.9981
usa/washington/mobile_e-wenatchee/,47.41013,-120.281052
usa/washington/anacortes-202-avenue/,48.52059,-122.61428
usa/washington/bellevue/se-12th-st/,47.600863,-122.148397
texas/houston/baytown/,29.7706975,-95.0312316
texas/houston/park-place/,29.686389,-95.294722
texas/houston/seabrook-friendship-park/,29.5830473,-95.0155437
texas/houston/conroe-relocated/,30.3503017,-95.4251278
texas/houston/houston-east/,29.7679707,-95.2205867
texas/san-antonio/calaveras-lake/,29.2753812,-98.3116919
texas/san-antonio/heritage-middle-school/,29.3529047,-98.3328207
texas/san-antonio/old-hwy-90/,29.4239327,-98.5805051
texas/san-antonio/palo-alto/,29.3328029,-98.5513964
texas/san-antonio/san-antonio-northwest/,29.51509,-98.620166
texas/san-antonio/selma/,29.5877306,-98.3124785
texas/el-paso/socorro-hueco/,31.6675,-106.288
texas/corpus-christi/national-seashore/,27.4269883,-97.2987037
texas/beaumont/beaumont-mary/,-94.09093,30.06717
texas/midland/odessa-gonzales/,31.8702534,-102.3347563
texas/houston/galveston-99th-street/,29.2544736,-94.8612886
texas/waco/waco-mazanec/,31.6530743,-97.0706982
texas/laredo/world-trade-bridge/,-99.533333,27.599444
texas/amarillo/amarillo-a-m/,35.2015839,-101.9092481
texas/houston/clinton/,29.7337263,-95.2575931
texas/houston/houston-deer-park--2/,29.670025,-95.1285077
texas/houston/houston-aldine/,29.901037,-95.3261248
texas/el-paso/ascarate-park-se/,31.7467425,-106.4027843
texas/el-paso/el-paso-chamizal/,31.7656976,-106.4552204
texas/el-paso/el-paso-utep/,31.7682914,-106.5012595
texas/harlingen/mission/,26.2262097,-98.291069
texas/corpus-christi/dona-park/,27.8118142,-97.4657005
texas/beaumont/hamshire/,29.8639525,-94.3177999
texas/beaumont/setrpc-42-mauriceville/,30.1946263,-93.8672095
texas/harlingen/brownsville/,25.8925176,-97.4938295
texas/midland/odessa-hays-elementary-school/,31.8365747,-102.3420368
texas/houston/kingwood/,30.0584604,-95.1897514
texas/austin/austin-audubon-society/,30.4831681,-97.8723005
texas/austin/austin-northwest/,30.3544356,-97.7602554
texas/beaumont/port-arthur-memorial-school/,29.9229186,-93.9090282
texas/harlingen/isla-blanca-park/,26.0696153,-97.1621996
texas/tyler/karnack/,32.6689873,-94.1674569
texas/laredo/eagle-pass/,28.704607,-100.4511555
texas/austin/austin-webberville-rd/,-97.7128831,30.2632079
texas/lubbock/lubbock-pm25/,33.590764,-101.8504185
texas/austin/zavala-elementary/,30.2583319,-97.7203007
texas/austin/fayette-county/,29.9624745,-96.7458748
texas/lubbock/lubbock-12th-street/,33.58553,-101.78698
texas/bowie/texarkana-new-boston/,33.436111,-94.07778
usa/alaska/mat-su/palmer/,-149.104,61.599
usa/alaska/mat-su/wasilla/,,
usa/alaska/anchorage/garden/,61.205861,-149.8246
usa/alaska/anchorage/parkgate/,61.3267,-149.569707
usa/alaska/tudor/,,
usa/alaska/mat-su/butte/,61.534163,-149.031655
usa/alaska/anchorage/dhhs/,,
usa/alaska/north-pole-water/,,
usa/alaska/fnsb-rams/,64.823093,-147.897291
usa/alaska/floyd-dryden/,58.388889,-134.565556
usa/alaska/fnsb-ncore/,64.8458,-147.72727
usa/alaska/fnsb-np-fire/,64.762742,-147.310234
usa/alaska/fairbanks/npwstil/,64.746627,-147.353268
usa/alaska/anchorage/laurel/,-149.8344237,61.1744921
usa/alaska/fairbanks/artisans/,64.861023,-147.78569
usa/newjersey/brigantine/,39.464872,-74.448736
usa/newjersey/columbia/,40.924607,-75.067825
usa/newjersey/elizabeth-trailer/,40.64144,-74.20836
usa/newjersey/ewing/,40.26957195,-74.80453491
usa/newjersey/flemington/,40.51527,-74.80666
usa/newjersey/jersey-city-fh/,-74.05229,40.72545
usa/newjersey/millville/,39.42227,-75.0252
usa/newjersey/newark-firehouse/,-74.1928,40.72102
usa/newjersey/new-brunswick/,40.47279,-74.42251
usa/newjersey/rahway-pm/,40.6041,-74.27517
usa/newjersey/rider-university/,40.28308,-74.74264
usa/newjersey/rutgers-university/,40.46218,-74.42944
usa/newjersey/south-camden/,39.923969,-75.122317
usa/newjersey/ft-lee-near-road/,40.85355,-73.9661
boston/,42.3584308,-71.0597732
usa/massachusett/boston/north-end/,42.3631,-71.0542
usa/massachusett/milton/blue-hill-observatory/,42.211674,-71.113864
usa/massachusett/brockton/,42.065119,-71.012686
usa/massachusett/haverhill/consentino-school/,42.77077,-71.102259
usa/massachusett/lynn/water-treatment-plant/,42.474671,-70.971358
usa/massachusett/pittsfield/south-street/,42.447781,-73.254232
usa/massachusett/springfield/liberty-st/,42.108581,-72.590614
usa/massachusett/worcester/summer-st/,42.263877,-71.794186
usa/massachusett/boston/roxbury/,-71.0825,42.3294
usa/massachusett/boston/von-hillern/,42.325184,-71.05608
usa/massachusett/ware/,42.298279,-72.333904
usa/massachusett/greenfield/hs/,42.605849,-72.596702
utah/box-elder/,41.492802,-112.0187
utah/cache/,41.731201,-111.837502
utah/washington/,37.179,-113.3052
utah/uintah/,40.4525801,-109.5094572
utah/duchesne/,-110.4029329,40.1632913
utah/tooele/,40.539299,-112.299797
utah/weber/,-111.975197,41.206402
utah/utah/,40.253502,-111.6632
utah/salt-lake-city/,40.733501,-111.871696
utah/davis/,40.9628845,-112.0953297
utah/lindon-provo/,40.3414,-111.7136
georgia/athens/,33.945833,-83.372222
georgia/south-dekalb/,33.68797,-84.29048
georgia/yorkville/,33.9285,-85.04534
georgia/augusta/,33.433349,-82.022217
georgia/warner-robins/,32.6056,-83.5979
georgia/gainesville/,34.3003,-83.8139
georgia/rome/,34.26054,-85.32333
georgia/rossville/,34.9789,-85.3009
georgia/albany/,31.576917,-84.100194
georgia/confederate-ave./,33.720192,-84.357056
georgia/gwinnett-tech/,33.96127,-84.06901
georgia/mcdonough/,33.4347,-84.1617
georgia/newnan/,33.40404,-84.745988
georgia/columbus-airport/,32.521302,-84.944795
georgia/macon/,32.805408,-83.543521
georgia/lathrop/,32.090457,-81.130378
georgia/valdosta/,-83.2933,30.8486
usa/hawaii/kapolei/,21.32374479,-158.0886127
usa/hawaii/ocean-view/,19.117561,-155.77813
usa/hawaii/honolulu/,21.30758,-157.85542
usa/hawaii/pahala/,19.2039,-155.4801833
usa/hawaii/hilo/,19.71756222,-155.1105295
usa/hawaii/pearl-city/,-157.969126,21.39283293
usa/hawaii/kihei/,20.78099679,-156.4463732
usa/hawaii/sand-island/,21.30383819,-157.8711711
usa/hawaii/mountain-view/,-155.102028,19.555444
usa/hawaii/niumalu/,21.9495,-159.365
usa/hawaii/paia/,-156.370344,20.902031
usa/hawaii/pahoa_high/,19.491039,-154.94225
usa/hawaii/haas_school/,-154.9444,19.501
usa/hawaii/leilani/,19.46398872,-154.898
usa/clark-county/boulder-city/,35.978125,-114.846298
usa/clark-county/jean/,35.785671,-115.357048
usa/clark-county/paul-meyer/,36.106372,-115.253352
usa/clark-county/walter-johnson/,36.169751,-115.263025
usa/clark-county/palo-verde/,36.173416,-115.332714
usa/clark-county/joe-neal/,36.270583,-115.238256
usa/clark-county/jerome-mack/,36.141895,-115.078725
usa/clark-county/sunrise-acres/,36.163959,-115.113916
usa/clark-county/jd-smith/,36.19126,-115.12293
usa/clark-county/las-vegas-paiute/,36.357796,-115.361355
usa/idaho/grangeville/,45.931389,-116.11528
usa/idaho/pocatello--g-g/,42.87667,-112.45972
usa/idaho/idaho-city/,43.823017,-115.838557
usa/idaho/lancaster/,47.788827,-116.804419
usa/idaho/lewiston/,46.408352,-116.992533
usa/idaho/moscow/,-116.95918,46.721932
usa/idaho/st-lukes-meridian/,43.600699,-116.347853
usa/idaho/ketchum/,43.682489,-114.371231
usa/idaho/boise-fire-station--5/,43.618889,-116.213611
usa/idaho/pocatello-g---g/,42.87667,-112.44
usa/idaho/salmon/,45.181897,-113.890285
usa/idaho/paul-elementary/,42.607575,-113.785297
usa/idaho/potlatch/,46.921,-116.89625
usa/idaho/rexburg/,43.809486,-111.800475
usa/idaho/weiser-high-school/,44.261694,-116.979172
usa/idaho/plummer/,-116.885902,47.3386
usa/idaho/bonners-ferry/,48.70555,-116.368967
usa/idaho/pinehurst/,47.536712,-116.236867
usa/idaho/st-maries/,47.316858,-116.570627
usa/idaho/sandpoint/,48.292122,-116.556669
usa/idaho/nampa/,43.58031,-116.562676
usa/idaho/rock-creek/,42.56505,-114.494767
usa/idaho/cottonwood/,46.061322,-116.3467
usa/idaho/st.-lukes-ncore/,43.599083,-116.34843
usa/idaho/pocatello/,42.87667,-112.45972
usa/idaho/sandpoint25-uofi/,48.292122,-116.556669
usa/idaho/sandpoint10-uofi/,-116.556669,48.292122
usa/idaho/pine/,47.536712,-116.236867
usa/idaho/st-lukes-site/,43.600699,-116.347853
usa/idaho/bonners-ferry-kootenai/,-116.368967,48.70555
usa/idaho/juliaetta/,46.578731,-116.708958
usa/idaho/lapwai_trex/,46.3972,-116.8062
usa/idaho/reubens_trex/,46.3349,-116.535797
usa/idaho/kamiah_trex/,46.2094,-116.0275
usa/idaho/twin/,42.563975,-114.446447
usa/idaho/porthill/,48.995911,-116.509953
usa/idaho/franklin/,42.013333,-111.80916
usa/idaho/caribou-hospital-soda-sprgs/,42.65167,-111.61472
usa/idaho/shoshone-bannock-tribes/,42.589833,-112.458889
usa/michigan/bay-city/,43.5944677,-83.8888647
usa/michigan/dearborn/,42.3222599,-83.1763145
usa/michigan/detroit-w-lafayette/,42.3205673,-83.0746799
usa/michigan/flint/,43.0125274,-83.6874562
usa/michigan/grand-rapids/,42.9633599,-85.6680863
usa/michigan/houghton-lake/,44.314739,-84.7647496
usa/michigan/kalamazoo/,42.2917069,-85.5872286
usa/michigan/lansing/,42.732535,-84.5555347
usa/michigan/port-huron/,42.9708634,-82.4249142
usa/michigan/sault-ste-marie/,46.521858,-84.3460896
usa/michigan/seney/,46.3454921,-85.9465471
usa/michigan/tecumseh/,42.0039331,-83.9449417
usa/michigan/ypsilanti/,42.2411499,-83.6129939
usa/virginia/aurora-hills-visitor-center/,38.8577,-77.05922
usa/virginia/ashburn-broad-run-high-school/,39.02473,-77.48925
usa/virginia/shirley-plantation/,37.34438,-77.25925
usa/virginia/albemarle-high-school/,38.07657,-78.50397
usa/virginia/beach-road-vdot/,37.35748,-77.59355
usa/virginia/fredericksburg-geomagnetic-observatory/,-77.37742,38.20087
usa/virginia/sumerduck-c.-phelps-wildlife-mgmt-area/,38.47367,-77.76772
usa/virginia/lee-district-park-fairfax-county/,38.77335,-77.10468
usa/virginia/frederick-co.-public-school-maint.-dept./,-78.08157,39.28101
usa/virginia/nasa-langley-research-center/,37.103733,-76.387017
usa/virginia/hanover/,37.60613,-77.2188
usa/virginia/luray-caverns-airport/,38.66373,-78.50442
usa/virginia/long-park-haymarket/,38.85287,-77.63462
usa/virginia/natural-bridge-station/,37.62668,-79.51257
usa/virginia/harrisonburg-vdot/,38.47753,-78.81952
usa/virginia/rural-retreat/,36.89117,-81.25423
usa/virginia/shenandoah-national-park-big-meadows/,38.5228,-78.43487
usa/virginia/widewater-elem.-school-widewater/,38.48123,-77.3704
usa/virginia/tidewater-community-college/,36.90118,-76.43808
usa/virginia/va-tech-agricultural-research-center/,36.66525,-76.73078
usa/virginia/herman-l.-horn-elementary-school/,37.28342,-79.88452
usa/virginia/msic-mathscience-innovation-center/,-77.40027,37.55652
usa/pennsylvania/altoona/,40.515,-78.3889
usa/pennsylvania/arendtsville/,39.9233,-77.3081
usa/pennsylvania/bristol/,40.107201,-74.882202
usa/pennsylvania/carlisle/,-77.1867,40.2464
usa/pennsylvania/charleroi/,40.1469,-79.9033
usa/pennsylvania/chester/,39.8356,-75.3725
usa/pennsylvania/erie/,42.1428,-80.0372
usa/pennsylvania/farrell/,41.215,-80.485
usa/pennsylvania/florence/,-80.42,40.4447
usa/pennsylvania/freemansburg/,40.6281,-75.3411
usa/pennsylvania/greensburg/,40.3053,-79.5061
usa/pennsylvania/harrisburg/,40.246992,-76.846988
usa/pennsylvania/hershey/,40.2722,-76.6814
usa/pennsylvania/holbrook/,39.8553545,-80.3136803
usa/pennsylvania/johnstown/,-78.9158,40.3097
usa/pennsylvania/kittanning/,40.8142,-79.565
usa/pennsylvania/lancaster/,40.0467,-76.2833
usa/pennsylvania/lancaster-downwind/,40.0439,-76.1125
usa/pennsylvania/lebanon/,40.33733,-76.383446
usa/pennsylvania/montoursville/,-76.9239,41.2508
usa/pennsylvania/nazareth/,40.740375,-75.3096237
usa/pennsylvania/new-castle/,-80.3467,40.9958
usa/pennsylvania/new-garden-airport/,39.8344,-75.7678
usa/pennsylvania/norristown/,-75.3092,40.1122
usa/pennsylvania/reading-airport/,-75.9686,40.3833
usa/pennsylvania/scranton/,41.4428,-75.6231
usa/pennsylvania/state-college/,40.8114,-77.8769
usa/pennsylvania/swiftwater/,41.083099,-75.3283
usa/pennsylvania/tioga-county/,41.7649466,-77.2864879
usa/pennsylvania/towanda/,41.705226,-76.512726
usa/pennsylvania/washington/,40.17,-80.2617
usa/pennsylvania/wilkes-barre/,41.2459149,-75.8813075
usa/pennsylvania/york/,-76.6994,39.9653
usa/pennsylvania/marcus-hook/,-75.413973,39.818715
usa/wisconsin/appleton-aal/,44.3069,-88.3956
usa/wisconsin/chiwaukee/,-87.8111,42.5047
usa/wisconsin/devils-lake/,43.4356,-89.6803
usa/wisconsin/eau-claire-dot/,44.761,-91.143
usa/wisconsin/green-bay-e-high/,44.5167,-87.9939
usa/wisconsin/harrington-bch/,-87.81,43.4981
usa/wisconsin/horicon/,43.46611,-88.621109
usa/wisconsin/lacrosse-dot/,43.7781,-91.225
usa/wisconsin/madison-east/,43.0730517,-89.4012302
usa/wisconsin/milw-16th--st/,43.0604305,-87.9326396
usa/wisconsin/milw-college-ave/,42.9301462,-87.8989714
usa/wisconsin/milw-ser-dnr/,43.7844397,-88.7878678
usa/wisconsin/perkinstown/,45.2066,-90.5969
usa/wisconsin/potawatomi/,45.5639,-88.81
usa/wisconsin/potosi/,42.692131,-90.696373
usa/wisconsin/wauk-cleveland/,-87.7473085,43.9149942
usa/maricopa/south-phoenix/,33.40305556,-112.0752778
usa/maricopa/north-phoenix/,33.56027778,-112.0661111
usa/maricopa/durango-complex/,33.42638889,-112.1180556
usa/maricopa/tempe/,33.41111111,-111.9347222
usa/maricopa/west-phoenix/,33.48361111,-112.1425
usa/maricopa/glendale/,33.56916667,-112.1913889
usa/maricopa/mesa/,33.41027778,-111.865
usa/maricopa/diablo/,33.39583333,-111.9677778
usa/pima-county/geronimo/,32.251846,-110.965296
usa/pima-county/rose-elementary/,32.172997,-110.980115
usa/pima-county/coachline/,32.380816,-111.127157
usa/pima-county/childrens-park-ncore/,32.295142,-110.982296
usa/new-mexico/chaparral/,32.04111,-106.40917
usa/new-mexico/west-mesa/,32.27793,-106.86435
usa/new-mexico/taos-fire-station/,36.38333,-105.58333
usa/new-mexico/holman-rd/,32.42472,-106.67417
usa/new-mexico/carlsbad/,32.38,-104.26222
usa/new-mexico/deming-airport/,32.255833,-107.72266
usa/new-mexico/santa-teresa/,31.78778,-106.68278
usa/new-mexico/anthony/,32.00361,-106.59917
usa/new-mexico/hobbs-jefferson/,32.72683,-103.12298
usa/new-mexico/desert-view/,31.79611,-106.58389
usa/new-mexico/santa-fe-airport/,35.61975,-106.07968
usa/florida/bay/st.-andrews-state-park/,30.13055556,-85.73138889
usa/florida/brevard/melbourne/,28.05361111,-80.62861111
usa/florida/broward/vista-view-park/,26.07305556,-80.33888889
usa/florida/collier/laurel-oak-elementary/,26.26972222,-81.71111111
usa/florida/columbia/lake-city-veterans-domicile/,30.17805556,-82.61916667
usa/florida/duval/sheffield-elementary/,30.47694444,-81.58666667
usa/florida/duval/mandarin-rd-site/,30.13583333,-81.63416667
usa/florida/duval/mayo-clinic/,30.26027778,-81.45361111
usa/florida/escambia/ellyson-industrial-park/,30.52527778,-87.20361111
usa/florida/hamilton/white-springs/,30.42611111,-82.79527778
usa/florida/hillsborough/usmc-reserve-center/,27.89305556,-82.53833333
usa/florida/hillsborough/sydney/,27.96583333,-82.23055556
usa/florida/holmes/bonifay-tri-county-airport/,30.84472222,-85.605
usa/florida/marion/ocala-ymca/,29.17138889,-82.09472222
usa/florida/martin/stuart/,27.1725,-80.24055556
usa/florida/miami-dade/miami-fire-station-station--5/,25.79472222,-80.21555556
usa/florida/miami-dade/homestead-fire-station-station--16/,25.47194444,-80.48277778
usa/florida/nassau/yulee/,30.62666667,-81.53583333
usa/florida/okaloosa/fort-walton-beach/,30.42666667,-86.66611111
usa/florida/orange/lake-isle-estates-winter-park/,28.59638889,-81.3625
usa/florida/palm-beach/belle-glade/,26.72416667,-80.66333333
usa/florida/palm-beach/wastewater-treatment-plant-royal-palm-beach/,26.73083333,-80.23388889
usa/florida/polk/baptist-childrens-home/,28.02888889,-81.97222222
usa/florida/santa-rosa/woodlawn-beach-middle-school/,-87.00805556,30.39416667
usa/florida/sarasota/bee-ridge-park/,27.29055556,-82.50722222
usa/florida/sarasota/paw-park/,-82.47944444,27.35
usa/florida/seminole/seminole-community-college/,28.74611111,-81.31055556
usa/florida/volusia/daytona-blind-services/,-81.0525,29.20666667
usa/florida/wakulla/st.-marks-wildlife-refuge/,-84.16111111,30.0925
usa/florida/citrus/crystal-river-preserve/,28.95861111,-82.64222222
usa/florida/lee/winkler-pump-station/,26.60166667,-81.87805556
usa/florida/putnam/palatka-barge-port/,29.68666667,-81.65638889
usa/florida/alachua/paynes-prairie-state-park/,29.54472222,-82.29611111
usa/florida/pinellas/azalea-park/,27.79111111,-82.74
usa/florida/pinellas/john-chesnut-sr.-park-east-lake/,28.09,-82.70055556
usa/florida/sarasota/jackson-road/,27.08833333,-82.36222222
usa/florida/duval/pepsi-place-pp-ppl/,-81.60694444,30.26277778
usa/florida/hillsborough/apollo-beach/,27.779712,-82.419835
usa/florida/hillsborough/munro/,27.95555556,-82.46722222
usa/colorado/boulder-cu/athens/,40.012969,-105.267212
usa/colorado/camp/,39.751184,-104.987625
usa/colorado/chatfield-park/,-105.070358,39.534488
usa/colorado/colorado-college/,38.848014,-104.828564
usa/colorado/colorado-national-monument/,39.1067,-108.7411
usa/colorado/commerce-city/alsup-elementary/,39.826007,-104.937438
usa/colorado/delta/,38.739213,-108.073118
usa/colorado/fort-collins-csu-facilities/,40.571281,-105.079974
usa/colorado/grand-jct.-powell/pm2.5/,39.063798,-108.561173
usa/colorado/greeley-hospital/,40.414877,-104.70693
usa/colorado/i-25-denver/,39.732146,-105.015317
usa/colorado/la-casa/,39.77946,-105.005124
usa/colorado/longmont-municipal/,40.164576,-105.100856
usa/colorado/national-jewish-hospital/,-104.939925,39.738578
usa/colorado/rifle/,39.5318,-107.78229
usa/colorado/welby/,39.838199,-104.94984
usa/colorado/aspen-pm/,39.192966,-106.823183
usa/colorado/adams-county-admin-building/,,
usa/colorado/globeville/,39.785622,-104.98846
usa/colorado/rangely--co/,40.086941,-108.761002
usa/maine/portland/deering-oaks/,43.660248,-70.268967
usa/maine/presque-isle/riverside-street/,46.682299,-68.016195
usa/maine/micmac/,46.6964,-68.033096
usa/maine/rumford/,44.5514,-70.5463
usa/maine/acadia-np-mcfarland/,44.377048,-68.260902
usa/maine/lewiston/,44.089355,-70.214134
usa/maine/littleton/,46.228731,-67.882566
usa/maine/bangor/,44.798859,-68.769676
usa/maine/portland-deering-oaks/,43.660248,-70.268967
usa/maine/sipayik-me/,44.9636,-67.060799
usa/maine/presque-isle-riverside/,46.682299,-68.016195
usa/maine/madawaska-psb/,47.3553,-68.3211
usa/louisiana/alexandria--lsu-ag-center-site-/,-92.410611,31.177638
usa/louisiana/baton-rouge-capitol-site/,30.46198,-91.17922
usa/louisiana/kenner-site/,30.043573,-90.275091
usa/louisiana/lafayette-usgs-site/,-92.051389,30.2175
usa/louisiana/madisonville/northshore-site/,30.429304,-90.199683
usa/louisiana/monroe-airport-site/,32.509713,-92.046093
usa/louisiana/thibodaux-site/,-90.765183,29.763889
usa/louisiana/westlake-site/,30.261667,-93.284167
usa/louisiana/shreveport-downtown-airport-site/,32.53626,-93.74891
usa/iowa/davenport/jefferson-school/,41.530011,-90.587611
usa/iowa/lake-sugema/,40.693298,-92.006104
usa/iowa/buffalo/linwood-mining/,41.467236,-90.688451
usa/iowa/clinton/chancy-park/,41.823101,-90.211899
usa/iowa/clinton/rainbow-park/,41.875,-90.177498
usa/iowa/davenport/hayes-school/,-90.624016,41.512032
usa/iowa/emmetsburg/,43.123704,-94.693518
usa/iowa/iowa-city/hoover-school/,41.658195,-91.503471
usa/iowa/muscatine/high-school-e-campus/,41.400968,-91.067957
usa/iowa/viking-lake/,-95.044998,40.970001
usa/iowa/waterloo/water-tower/,42.5014,-92.315804
usa/iowa/des-moines/carpenter/,41.603056,-93.643056
usa/iowa/public-health-4/,41.97677,-91.68766
usa/iowa/public-health/,41.9767,-91.6878
usa/connecticut/danbury/,-73.4447,41.4014
usa/connecticut/hartford-huntley/,-72.679923,41.771444
usa/connecticut/east-hartford/,41.7847,-72.6297
usa/connecticut/new-haven-criscuolo-park/,41.3011,-72.9028
usa/connecticut/bridgeport/,41.171398,-73.195297
usa/connecticut/waterbury/,41.5503,-73.0442
usa/connecticut/groton-fort-griswold/,41.3536,-72.0789
mexico/celaya/celaya-policia/,20.51856971,-100.8167433
mexico/celaya/celaya-san-juanico/,20.53793714,-100.8406485
mexico/irapuato/irapuato-bomberos/,20.6747797,-101.355692
mexico/leon/t21/,21.10868,-101.68874
mexico/salamanca/nativitas/,20.57036734,-101.1900782
mexico/celaya/celaya-tecnologico/,20.54506305,-100.8073145
mexico/guanajuato/t-21/,-101.688614,21.108664
mexico/guanajuato/san-juanico/,20.537489,-100.839905
mexico/guanajuato/dif/,20.558094,-101.204941
mexico/guanajuato/tecnologico/,20.545446,-100.807091
mexico/guanajuato/teodula/,20.658146,-101.349197
mexico/guanajuato/cruz-roja/,20.578896,-101.199211
mexico/guanajuato/ciceg/,21.10343,-101.636345
mexico/guanajuato/facultad-de-medicina/,21.133545,-101.679543
mexico/guanajuato/seguridad-publica/,20.517593,-100.800797
mexico/guanajuato/bomberos/,20.67495,-101.355873
mexico/guanajuato/secundaria/,20.692413,-101.364861
mexico/guanajuato/nativitas/,20.565231,-101.188248
mexico/guanajuato/hospital-general/,20.947924,-101.425774
mexico/chihuahua/estacion-de-bomberos-no.5/,28.63258333,-106.0388333
mexico/chihuahua/centro/,28.65222778,-106.0853583
mexico/ensenada/secundaria-no.-9/,31.85990833,-116.6038222
mexico/mexicali/comision-estatal/,-115.4859444,32.60363889
mexico/guadalajara/loma-dorada/,20.62955425,-103.2639298
mexico/guadalajara/las-pintas/,20.5767,-103.3265222
mexico/guadalajara/tlaquepaque/,20.64144584,-103.3126296
mexico/jalisco/santa-fe/,20.528912,-103.377146
mexico/jalisco/centro/,20.67236667,-103.3333588
mexico/jalisco/oblatos/,20.69904828,-103.2966768
mexico/jalisco/atemajac/,20.71818028,-103.3554914
mexico/jalisco/aguilas/,20.62960272,-103.4167725
mexico/hgo/pachuca-centro/,20.12019546,-98.74000074
mexico/hgo/museo-del-rehilete/,20.07687,-98.77799
mexico/morelia/palacio-municipal/,19.702153,-101.190948
mexico/morelia/universidad-michoacana-de-san-nicolas-hidalgo/,19.69062778,-101.2063667
mexico/toluca/aeropuerto/,19.33169773,-99.57120674
mexico/toluca/ceboruco/,19.26041389,-99.64561389
mexico/toluca/toluca-centro/,19.29429834,-99.65529709
mexico/toluca/metepec/,19.27019291,-99.59530705
mexico/mexico/villa-de-las-flores/,19.658223,-99.09659
mexico/mexico/acolman/,19.635501,-98.912003
mexico/mexico/tultitlan/,-99.17683293,19.60197359
mexico/mexico/xalostoc/,19.525995,-99.0824
mexico/mexico/cuautitlan/,-99.198602,19.722186
mexico/mexico/fes-acatlan/,-99.243524,19.482473
mexico/mexico/nezahualcoyotl/,19.393734,-99.028212
mexico/mexico/tlalnepantla/,19.529077,-99.204597
mexico/toluca/oxtotitlan/,-99.68350942,19.28349468
mexico/toluca/san-cristobal-huichotitlan/,19.32729576,-99.63430512
mexico/toluca/san-mateo-atenco/,19.28040006,-99.54180273
mexico/mexico/san-agunstin/,19.53225153,-99.02994882
mexico/mexico/tlaneplantla/,19.52839705,-99.20424158
mexico/mexico/merced/,19.42461,-99.119594
mexico/mexico/iztacalco/,19.384413,-99.117641
mexico/mexico/uam-iztapalapa/,19.360794,-99.07388
mexico/mexico/pedregal/,19.325146,-99.204136
mexico/mexico/tlahuac/,19.246459,-99.010564
mexico/mexico/camarones/,19.468404,-99.169794
mexico/mexico/san-juan-de-aragon/,-99.086095,19.452592
mexico/mexico/hospital-general-de-mexico/,19.411617,-99.152207
mexico/mexico/santa-fe/,19.3863928,-99.2255625
mexico/mexico/coyoacan/,19.350258,-99.157101
mexico/mexico/uam-xochimilco/,19.304441,-99.103629
mexico/mexico/ajusco/,19.154674,-99.162459
mexico/mexico/san-agustin/,19.532968,-99.030324
mexico/mexico/centro-de-ciencias-de-la-atmosfera/,-99.1761,19.3262
mexico/mexico/santa-ursula/,19.3136873,-99.14966765
mexico/aguascalientes/secundaria-leyes-de-reforma/,21.90300336,-102.2846128
mexico/durango/durango/,24.03447,-104.64503
mexico/mexico/ajusco-medio/,19.2721,-99.207658
mexico/mexico/miguel-hidalgo/,19.40405,-99.202603
mexico/morelos/estacion-de-monitoreo-cuernavaca-centro/,18.90861,-99.21167
mexico/mexico/benito-juarez/,19.371612,-99.158969
mexico/mexico/milpa-alta/,19.1769,-98.990189
mexico/mexico/investigaciones-nucleares/,19.291968,-99.38052
mexico/nuevo-leon/apodaca/,25.7815621,-100.1875974
mexico/nuevo-leon/obispado/,25.6745177,-100.3473334
mexico/nuevo-leon/s.-pedro/,25.6573447,-100.4017501
mexico/nuevo-leon/san-nicolas/,-100.2868973,25.7493469
mexico/nuevo-leon/s.-catarina/,25.6869003,-100.4220058
mexico/nuevo-leon/pastora/,25.6717286,-100.2231895
mexico/nuevo-leon/escobedo/,25.7802165,-100.3161126
mexico/nuevo-leon/garcia/,25.816667,-100.583333
mexico/nuevo-leon/juarez/,25.6516471,-100.1059194
mexico/nuevo-leon/metrorrey/,25.7779954,-100.3775906
mexico/hidalgo/atitalaquia/centro-de-salud/,-99.22194444,20.06
mexico/coahuila/piedras-negras/centro-de-rehabilitacion-dif/,28.70766667,-100.5265
mexico/hidalgo/tulancingo/,20.08737222,-98.37212194
mexico/morelos/cuautla/palacio-municipal-cuautla/,18.81298694,-98.95530583
mexico/veracruz/poza-rica/universidad-veracruzana/,20.50897222,-97.44698611
mexico/veracruz/minatitlan/tecnologico/,18.005675,-94.55533611
mexico/nayarit/tepic/tecnologico-de-tepic/,21.47817778,-104.8677417
mexico/durango/durango/ipn/,24.05155556,-104.6113611
mexico/coahuila/monclova/jurisdiccion-sanitaria/,26.90819444,-101.427
mexico/hidalgo/tula/centro-de-salud/,20.05305556,-99.34277778
mexico/coahuila/torreon/conalep/,25.52269444,-103.3958056
mexico/hidalgo/atotonilco/primaria-revolucion/,20.00666667,-99.21888889
mexico/aguascalientes/secretaria-de-medio-ambiente/,21.84639167,-102.2884306
mexico/oaxaca/casa-hogar/,-96.75216667,17.09466667
mexico/nayarit/tepic/primaria-julian-gascon-mercado/,21.50980556,-104.9101806
mexico/durango/gomez-palacio/campestre/,25.55122222,-103.5025278
mexico/hidalgo/tepeapulco/estacion-de-bomberos-de-cd.-sahagun/,20.28797222,-98.97127778
mexico/hidalgo/tepeji/primaria-melchor-ocampo/,19.90555556,-99.34694444
mexico/chihuahua-municipal/chih2/cimav/,28.71608333,-106.1333056
mexico/coahuila/saltillo/finanzas/,25.42147222,-100.9968611
mexico/aguascalientes/cbtis/,21.87331111,-102.3208028
mexico/veracruz/xalapa/stps/,19.53009444,-96.88188056
mexico/aguascalientes/centro/,21.88378056,-102.295825
mexico/sonora/nogales/instituto-tecnologico-de-nogales/,31.29311111,-110.9523056
mexico/hidalgo/huichapan/hospital/,20.37558333,-99.65422222
mexico/baja-california/tijuana/laboratorio/,-116.9207944,32.52840556
mexico/hidalgo/tizayuca/biblioteca/,19.83888889,-98.98361111
mexico/michoacan/morelia/laboratorio-de-salud/,19.69197778,-101.1554722
puerto-rico/san-juan/,18.4663338,-66.1057217
puerto-rico/ponce/,18.0110768,-66.6140616
gtradio-sonda/,14.571667,-90.533056
colombia/medellin/estacion-movil-1-metro-estrella/,6.1522889,-75.6277008
colombia/medellin/politecnico-colombiano-jaime-isaza-cadavid/,6.2089748,-75.5777664
colombia/medellin/une/,6.1867166,-75.556572
colombia/medellin/estacion-movil-2-universidad-nacional-de-colombia/,6.2525611,-75.5695801
colombia/medellin/casa-de-justicia-itagui/,6.1856666,-75.5972061
colombia/medellin/museo-de-antioquia/,-75.5696869,6.2527194
colombia/medellin/colegio-concejo-de-itagui/,6.1684971,-75.6443558
colombia/medellin/estacion-movil-1/,6.3790379,-75.4509125
colombia/medellin/tanques-la-ye/,6.1825418,-75.5506363
colombia/medellin/sos-girardota/,6.378422,-75.451014
colombia/medellin/estacion-movil-estacion-metro-la-estrella/,6.157711,-75.616725
colombia/medellin/tanques-la-ye-medellin/,6.182533,-75.550719
colombia/medellin/universidad-nacional-nucleo-el-volador/,6.262086466,-75.57904422
colombia/bogota/guaymaral/,4.78374,-74.04417
colombia/bogota/kennedy/,4.6249,-74.16135
colombia/bogota/las-ferias/,4.6906,-74.08256
colombia/bogota/fontibon/,-74.1415,4.6703
colombia/bogota/centro-de-alto-rendimiento/,4.65837,-74.084
colombia/bogota/minambiente/,4.62529,-74.06724
colombia/bogota/tunal/,4.57619,-74.13093
colombia/bogota/san-cristobal/,4.5725,-74.0836
colombia/bogota/usaquen/,4.70939,-74.03199
colombia/bogota/carvajal/,4.5958,-74.14855
colombia/bogota/suba/,4.76251,-74.09343
colombia/bogota/puente-aranda/,4.63187,-74.11757
colombia/bogota/carvajal-sevillana/,4.5958,-74.14855
colombia/bogota/us-consulate/,4.637735,-74.09486
ecuador/quito/belisario/,-0.18,-78.49
ecuador/quito/cotocollao/,-0.107777778,-78.49722222
ecuador/quito/carapungo/,-0.098333333,-78.44722222
ecuador/quito/centro/,-0.22,-78.51
ecuador/quito/los-chillos/,-0.3,-78.46
argentina/acumar/dock-sud-1/,-34.657988,-58.342538
argentina/buenos-aires/la-boca/,-58.3631337,-34.6344961
argentina/buenos-aires/centenario/,-34.635582,-58.5518647
argentina/buenos-aires/cordoba/,-34.5995674,-58.3915767
argentina/bahia-blanca/,-38.757463,-62.286891
chile/escuela-e-10/,-22.08551871,-70.18868252
chile/gendarmeria/,-22.063792,-70.185945
chile/complejo-deportivo-23-de-marzo/,-22.46027072,-68.93770692
chile/colegio-pedro-vergara-keller/,-22.44283906,-68.93254635
chile/antofagasta/,-23.61354216,-70.38331568
chile/bomberos/,-22.111064,-70.210828
chile/estacion-centro/,-22.46214464,-68.92806169
chile/sierra-gorda-/,-22.88872414,-69.31814071
chile/rancagua-i/,-34.16231461,-70.71391923
chile/rancagua-ii/,-34.14388838,-70.73713121
chile/la-florida/,-33.51663036,-70.58812396
chile/independencia/,-33.422301,-70.651162
chile/las-condes/,-33.37677352,-70.52332678
chile/parque-ohiggins/,-33.464142,-70.660797
chile/pudahuel/,-33.43781138,-70.75017123
chile/cerrillos/,-33.49284879,-70.71944028
chile/el-bosque/,-70.6662041,-33.54709965
chile/cerro-navia/,-33.43308961,-70.73214787
chile/puente-alto/,-33.59139062,-70.594788
chile/talagante/,-70.95306474,-33.67375207
chile/quilicura/,-33.36577568,-70.74828806
chile/curico/,-34.97492508,-71.23396751
chile/u.c.-maule/,-35.43572559,-71.61955386
chile/universidad-de-talca/,-35.40658274,-71.63339647
chile/la-florida./,-35.435155,-71.678578
chile/las-encinas-temuco/,-72.62078823,-38.74869912
chile/padre-las-casas-ii/,-38.76476745,-72.59879568
chile/museo-ferroviario/,-38.72530244,-72.57119255
chile/osorno/,-40.58447867,-73.11871982
chile/valdivia/,-73.22851282,-39.8313161
chile/inia--chillan/,-36.59488089,-72.08925365
chile/liceo-polivalente/,-36.60171321,-72.95852283
chile/puren/,-36.61616775,-72.09304056
chile/los-angeles-oriente/,-37.46562387,-72.32697841
chile/21-de-mayo/,-72.36146285,-37.47118229
chile/nueva-libertad/,-73.118693,-36.735998
chile/coyhaique/,-45.57996448,-72.06112599
chile/coyhaique-2/,-45.5785538,-72.05031588
chile/coyhaique-ii/,-45.57904567,-72.04996451
chile/valparaiso/,-33.0497438,-71.61416723
chile/ventanas/,-32.7789879,-71.37303128
chile/vina-del-mar/,-33.02041982,-71.55009284
chile/quilpue/,-71.43451287,-33.0474666
chile/copiapo-sivica/,-27.37032915,-70.32390668
chile/huasco-sivica/,-71.21965256,-28.46999807
chile/la-serena/,-29.93300652,-71.26196637
chile/coquimbo/,-71.33603825,-29.97039024
chile/punta-arenas/,-53.15829549,-70.92149748
chile/arica/,-18.48342799,-70.29055073
chile/los-angeles-oriente/,-37.46562387,-72.32697841
chile/alto-hospicio/,-20.29046688,-70.10019243
chile/linares/,-35.83694223,-71.59286585
chile/mirasol/,-41.47950692,-72.96875593
brazil/sao-paulo/americana/,-23.4892079,-46.6741555
brazil/sao-paulo/aracatuba/,-50.4394393,-21.1860297
brazil/sao-paulo/araraquara/,-21.7829663,-48.1864714
brazil/sao-paulo/bauru/,-22.329295,-49.0905538
brazil/sao-paulo/campinas-centro/,-22.9028433,-47.0571098
brazil/sao-paulo/capao-redondo/,-23.6667239,-46.7816448
brazil/sao-paulo/carapicuiba/,-23.5239623,-46.8411243
brazil/sao-paulo/catanduva/,-21.1420049,-48.9829903
brazil/sao-paulo/cerqueira-cesar/,-23.5502041,-46.6784605
brazil/sao-paulo/congonhas/,-23.6186305,-46.6482747
brazil/sao-paulo/cubatao-centro/,-23.880185,-46.4179827
brazil/sao-paulo/cubatao-vale-do-mogi/,-23.8436848,-46.377867
brazil/sao-paulo/cubatao-vila-parisi/,-23.8508082,-46.389992
brazil/sao-paulo/diadema/,-23.6818396,-46.620967
brazil/sao-paulo/guarulhos-paco-municipal/,-23.4562135,-46.5182887
brazil/sao-paulo/ibirapuera/,-46.6638124,-23.5804482
brazil/sao-paulo/interlagos/,-46.676091,-23.6824703
brazil/sao-paulo/ipen-usp/,,
brazil/sao-paulo/itaim-paulista/,-23.5019101,-46.4204122
brazil/sao-paulo/itaquera/,-23.5817434,-46.462333
brazil/sao-paulo/jacarei/,-23.2978962,-45.9676625
brazil/sao-paulo/jau/,-22.2995131,-48.5650057
brazil/sao-paulo/jundiai/,-23.6527809,-46.7123885
brazil/sao-paulo/marg.tiete-ponte-dos-remedios/,-23.5094696,-46.7094213
brazil/sao-paulo/marilia/,-22.1998744,-49.9599878
brazil/sao-paulo/maua/,-23.6693596,-46.4655954
brazil/sao-paulo/mooca/,-23.5603265,-46.5995903
brazil/sao-paulo/nossa-senhora-do-o/,-23.6033222,-46.5111479
brazil/sao-paulo/osasco/,-23.5279275,-46.8143874
brazil/sao-paulo/parelheiros/,-21.4649748,-49.2246518
brazil/sao-paulo/parque-d.pedro-ii/,-23.5406338,-46.6320967
brazil/sao-paulo/paulinia/,-22.7650153,-47.1500274
brazil/sao-paulo/paulinia-sul/,-47.6824383,-22.6794457
brazil/sao-paulo/pinheiros/,-23.5630037,-46.6864347
brazil/sao-paulo/piracicaba/,-22.7007113,-47.651941
brazil/sao-paulo/presidente-prudente/,-22.1205834,-51.4053949
brazil/sao-paulo/ribeirao-preto/,-21.1551602,-47.8276963
brazil/sao-paulo/s.-bernardo-do-campo/,,
brazil/sao-paulo/s.andre-capuava/,-23.645681,-46.4933389
brazil/sao-paulo/s.andre-paco-municipal/,-23.5406338,-46.6320967
brazil/sao-paulo/santana/,-23.498181,-46.6263306
brazil/sao-paulo/santo-amaro/,-23.6600932,-46.6552137
brazil/sao-paulo/santos/,-23.9628155,-46.3202369
brazil/sao-paulo/santos-ponta-da-praia/,-46.3000817,-23.9821223
brazil/sao-paulo/sao-caetano-do-sul/,-46.5552433,-23.6233625
brazil/sao-paulo/sao-jose-do-rio-preto/,-20.7846581,-49.3981148
brazil/sao-paulo/sao-jose-dos-campos/,,
brazil/sao-paulo/sorocaba/,-23.5026065,-47.4776113
brazil/sao-paulo/taboao-da-serra/,-23.6090545,-46.7559386
brazil/sao-paulo/tatui/,-22.97572,-47.0039545
brazil/sao-paulo/cid.universitaria-usp-ipen/,-23.5628427,-46.7368333
brazil/sao-paulo/s.bernardo-centro/,-23.6981945,-46.5463123
brazil/sao-paulo/s.bernardo-pauliceia/,-23.5960091,-46.7418047
brazil/sao-paulo/santa-gertrudes/,-47.5325941,-22.4573223
brazil/sao-paulo/campinas-v.uniao/,-22.946495,-47.1190359
brazil/sao-paulo/guarulhos-pimentas/,-23.4401119,-46.4102455
brazil/sao-paulo/s.jose-campos/,-23.9454866,-46.379582
brazil/sao-paulo/s.jose-campos-jd.satelite/,-23.2253559,-45.890235
brazil/sao-paulo/s.jose-campos-vista-verde/,-23.1839218,-45.8322146
brazil/sao-paulo/campinas-taquaral/,-22.8716597,-47.0613166
bolivia/cochabamba/parque-kanata/,-17.4125902,-66.1584437
bolivia/cochabamba/semapa/,-17.3609718,-66.1607009
bolivia/cochabamba/cona-cona/,-17.3880159,-66.2062244
el-salavor/san-salvador-centro/,13.70630556,-89.20011667
el-salavor/san-salvador-este/,13.71518889,-89.15481944
peru/lima/us-embassy/,-12.1052081,-76.9709299
peru/lima/san-borja/,-12.1005158,-76.9931074
peru/lima/campo-de-marte/,-12.0685169,-77.0413344
peru/lima/ate/,-12.0215169,-76.860565
peru/lima/villa-maria-del-triunfo/,-12.1580556,-76.9294444
peru/lima/santa-anita/,-12.0429356,-76.958545
peru/lima/san-juan-de-lurigancho/,-11.9689301,-76.9939836
peru/lima/huachipa/,-76.9129576,-12.0124654
peru/lima/carabayllo/,-11.85,-77.033333
peru/lima/san-martin-de-porres/,-77.096882,-11.9815573
peru/lima/puente-piedra/,-11.8612531,-77.0788818
canada/alberta/ams-13/,-111.6424,57.1492
canada/alberta/anzac/,56.448889,-111.038056
canada/alberta/beaverlodge/,55.1963,-119.3968
canada/alberta/bruderheim/,53.80012,-112.9278
canada/alberta/calgary-central-2/,51.0471506,-114.0731477
canada/alberta/calgary-northwest/,-114.1452723,51.0801475
canada/alberta/caroline/,51.95,-114.7
canada/alberta/clairmont/,55.262203,-118.785948
canada/alberta/edmonton-central/,53.5444364,-113.4987608
canada/alberta/edmonton-east/,-113.3680856,53.5482115
canada/alberta/edmonton-south/,53.5000575,-113.526047
canada/alberta/edson/,-116.392778,53.593611
canada/alberta/elk-island/,53.6824,-112.8681
canada/alberta/fort-chipewyan/,58.7084,-111.1764
canada/alberta/fort-mckay/,-111.640504,57.189406
canada/alberta/fort-mcmurray-patricia-mcinnes/,56.751386,-111.476596
canada/alberta/fort-saskatchewan/,53.698756,-113.222831
canada/alberta/genesee/,53.306507,-114.200347
canada/alberta/grande-prairie-henry-pirker/,55.1766364,-118.8077555
canada/alberta/hinton/,53.4273011,-117.544067
canada/alberta/lamont-county/,53.7604,-112.8802
canada/alberta/lethbridge/,49.7161843,-112.800586
canada/alberta/medicine-hat-crescent-heights/,50.0488873,-110.6811172
canada/alberta/powers/,53.633,-114.4199
canada/alberta/red-deer/,52.298622,-113.793438
canada/alberta/redwater-industrial/,53.8436,-113.0992
canada/alberta/smoky-heights/,55.405,-118.275
canada/alberta/steeper/,53.1325,-117.091111
canada/alberta/tomahawk/,-114.7686293,53.3724355
canada/alberta/woodcroft/,53.564411,-113.562583
canada/alberta/cold-lake-south/,54.4138811,-110.2330575
canada/alberta/elk-point-airport/,53.89127,-110.76389
canada/alberta/st.-lina/,54.2165,-111.5026
canada/alberta/ardrossan/,53.554691,-113.144105
canada/alberta/brooks/,50.563437,-111.850717
canada/alberta/calgary-southeast/,50.955122,-113.969742
canada/alberta/gibbons/,53.827241,-113.327174
canada/alberta/red-deer-lancaster/,52.24095,-113.765439
canada/alberta/red-deer-riverside/,-113.793438,52.298622
canada/alberta/rycroft/,55.741235,-118.597511
canada/alberta/sherwood-park/,-113.32098,53.53209
canada/alberta/conklin-community/,55.632331,-111.078872
canada/alberta/crnl-horizon/,57.30372,-111.73962
canada/alberta/fort-mckay-south/,57.1492,-111.6424
canada/alberta/shell-muskeg-river/,57.2491,-111.50857
canada/alberta/st.-albert/,53.6269722,-113.6119166
canada/alberta/stony-mountain/,55.62141,-111.17269
canada/alberta/wapasu/,-111.0385833,57.2591972
canada/alberta/hinton-west/,,
british-comlumbia/kelowna-college/,49.8611,-119.475
british-comlumbia/vernon-science-centre/,-119.2833,50.2333
british-comlumbia/creston-pc-school/,49.0944,-116.5125
british-comlumbia/squamish/,-123.1544,49.7063
british-comlumbia/kitimat-haul-road/,54.0297,-128.7016
british-comlumbia/kitimat-haisla-village/,-128.650768,53.973228
british-comlumbia/kitimat-smeltersite-road/,54.0228,-128.0369
british-comlumbia/kitimat-whitesail/,54.0675,-128.6402
british-comlumbia/smithers-st-josephs/,54.783,-127.1775
british-comlumbia/telkwa/,-127.0317,54.4128
british-comlumbia/quesnel-senior-secondary/,52.9822,-122.4922
british-comlumbia/prince-george-gladstone-school/,-122.7633,53.8592
british-comlumbia/prince-george-plaza-400/,53.9133,-122.7411
british-comlumbia/esquimalt-graving-dock/,48.4374,-123.422
british-comlumbia/harmac-cedar-woobank/,49.1216,-123.86
british-comlumbia/burns-lake-fire-centre/,54.2307,-125.7643
british-comlumbia/terrace-bc-access-centre/,54.5183,-128.5975
british-comlumbia/powell-river-wildwood/,49.8875,-124.5583
british-comlumbia/kamloops-federal-building/,50.6747,-120.3339
british-comlumbia/castlegar-zinio-park/,49.3175,-117.6617
british-comlumbia/golden-helipad/,51.2975,-116.966
british-comlumbia/nelson-kutenai-place/,49.4908,-117.2952
british-comlumbia/abbotsford-a-columbia-street/,49.0215,-122.3266
british-comlumbia/abbotsford-central/,-122.3097,49.0428
british-comlumbia/burnaby-kensington-park/,-122.9711,49.2794
british-comlumbia/burnaby-north-eton/,49.2875,-123.0078
british-comlumbia/burnaby-south/,49.2153,-122.9856
british-comlumbia/chilliwack-airport/,49.1561,-121.9406
british-comlumbia/hope-airport/,49.3697,-121.4994
british-comlumbia/horseshoe-bay/,49.3686,-123.2766
british-comlumbia/langley-central/,-122.5669,49.0956
british-comlumbia/north-delta/,-122.9017,49.1583
british-comlumbia/north-vancouver-second-narrows/,49.3017,-123.0203
british-comlumbia/pitt-meadow-meadowlands-school/,49.2453,-122.7089
british-comlumbia/port-moody-rocky-point-park/,49.2808,-122.8492
british-comlumbia/richmond-south/,49.1414,-123.1083
british-comlumbia/surrey-east/,49.1328,-122.6942
british-comlumbia/tsawwassen/,49.0099,-123.082
british-comlumbia/vancouver-kitsilano/,-123.1633,49.2617
british-comlumbia/crofton-escarpment-way/,48.838,-123.6552
british-comlumbia/crofton-substation/,48.875,-123.65
british-comlumbia/courtenay-elementary-school/,49.6825,-124.9961
british-comlumbia/duncan-cairnsmore/,48.785,-123.715833
british-comlumbia/nanaimo-labieux/,49.2008,-123.9939
british-comlumbia/rumble-beach-hospital/,-127.4881,50.4264
british-comlumbia/victoria-topaz/,48.4419,-123.363
british-comlumbia/kitimat-riverlodge/,54.0558,-128.6738
british-comlumbia/langdale-elementary/,49.439722,-123.478611
british-comlumbia/powell-river-james-thomson-school/,49.8891,-124.5625
british-comlumbia/whistler-meadow-park/,50.1438,-122.9611
british-comlumbia/fort-st-john-np-cultural-centre/,56.2458,-120.8489
british-comlumbia/prince-george-bc-rail-warehouse/,53.871,-122.743
british-comlumbia/vanderhoof/,54.0163,-124.0061
british-comlumbia/port-alberni-elementary/,-124.8056,49.2608
british-comlumbia/ucluelet-amphitrite-point/,48.921799,-125.541209
british-comlumbia/quesnel-maple-drive/,52.963,-122.4972
british-comlumbia/quesnel-west-correlieu-school/,52.9664,-122.5167
british-comlumbia/williams-lake-columneetza-school/,52.1416,-122.1527
british-comlumbia/crofton-georgia-hts/,48.838056,-123.655278
british-comlumbia/terrace-skeena-middle-school/,-128.6075,54.5217
british-comlumbia/kamloops-aberdeen/,50.63694,-120.37207
british-comlumbia/lavington-baptist-church/,50.23081,-119.10674
british-comlumbia/duncan-deykin-avenue/,48.8028,-123.645
british-comlumbia/squamish-elementary/,49.70516,-123.15133
british-comlumbia/fort-st-john-key-learning-centre/,56.244722,-120.856111
british-comlumbia/fort-st-john-85th-avenue/,56.231792,-120.853895
british-comlumbia/fort-st-john-old-fort/,56.200587,-120.825713
canada/saskatchewan/prince-albert/,53.2033494,-105.7530705
canada/saskatchewan/saskatoon/,52.1333972,-106.6832385
canada/saskatchewan/swift-current/,50.285069,-107.7971722
canada/saskatchewan/regina/,50.454722,-104.606667
canada/saskatchewan/buffalo-narrows/,55.8628398,-108.4794604
canada/saskatchewan/north-battleford/,52.7764752,-108.2974555
canada/saskatchewan/unity/,-109.14917,52.455382
canada/saskatchewan/maidstone/,53.110514,-109.286842
canada/saskatchewan/weyburn/,49.551498,-103.8565
canada/saskatchewan/kindersley/,51.480741,-109.158096
canada/saskatchewan/oxbow/,49.180414,-102.200706
canada/saskatchewan/esterhazy/,50.649787,-102.072945
canada/saskatchewan/wauchope/,49.596804,-101.907034
canada/saskatchewan/stoughton/,49.680098,-103.021932
canada/saskatchewan/meadow-lake/,-108.43729,54.126035
canada/saskatchewan/wawota/,49.894413,-102.026768
canada/saskatchewan/estevan/,49.132372,-102.985
canada/newfoundland/corner-brook/,48.95223,-57.92204
canada/newfoundland/burin/,-55.198521,47.098988
canada/newfoundland/mount-pearl/,47.50485,-52.7952
canada/newfoundland/st.-johns/,47.56038,-52.71147
canada/manitoba/winnipeg-scotia-st./,49.931999,-97.11325
canada/manitoba/winnipeg-ellen-st./,49.89798,-97.1465
canada/manitoba/flin-flon/,54.7686,-101.877555
canada/manitoba/brandon/,49.83917,-99.92069
canada/manitoba/thompson/,55.747194,-97.873528
sherbrooke/,45.4009928,-71.8824288
gatineau/,45.4765446,-75.7012723
shawinigan/,46.5618559,-72.7435254
trois-rivieres/,46.3432397,-72.5432834
saguenay/,48.4280529,-71.0684923
sorel/,-73.112302,46.042825
montreal/,45.5086699,-73.5539925
canada/quebec/estrie/,45.3986511,-71.8999973
canada/quebec/gatineau/,45.4765446,-75.7012723
canada/quebec/gatineau-secteur-de-hull/,45.460585,-75.734517
canada/quebec/haute-gatineau/,46.8595807,-71.4527369
canada/quebec/la-tuque/,47.4383405,-72.7839311
canada/quebec/lachute/,45.6520586,-74.3398015
canada/quebec/lac-saint-jean/,48.5727866,-72.10333
canada/quebec/lanaudiere/,46.8270056,-71.2439762
canada/quebec/laurentides/,47.32,-70.83
canada/quebec/laval/,-73.712409,45.6066487
canada/quebec/mauricie/,46.5394009,-72.7637461
canada/quebec/shawinigan-secteur-de-lassomption/,45.833333,-73.416667
canada/quebec/shawinigan-secteur-de-saint-marc/,46.5526339,-72.7439004
canada/quebec/trois-rivieres-secteur-du-sanctuaire/,46.3731756,-72.5060933
canada/quebec/trois-rivieres-secteur-du-vieux-trois-rivieres/,-72.5635874,46.3451065
canada/quebec/mont-laurier/,46.5504129,-75.4960308
canada/quebec/longueuil-secteur-du-parc-oceanie-brossard/,45.4424435,-73.4685068
canada/quebec/riviere-du-loup/,47.835957,-69.5359854
canada/quebec/rouyn-noranda-secteur-du-centre-ville/,46.8032826,-71.242796
canada/quebec/beauce/,46.777886,-71.316132
canada/quebec/bois-francs/,46.8857366,-71.3760692
canada/quebec/becancour-secteur-de-lhotel-de-ville/,46.3432059,-72.5428333
canada/quebec/sherbrooke-secteur-est/,45.394072,-71.896945
canada/quebec/abitibi/,48.5706148,-77.9494546
canada/quebec/rouyn-noranda-secteur-de-la-montee-du-sourire/,48.2342362,-79.0187836
canada/quebec/montmagny/,46.9801031,-70.5565719
canada/quebec/quebec/,46.8032826,-71.242796
canada/quebec/quebec-secteur-de-champigny/,46.7860396,-71.3612884
canada/quebec/quebec-secteur-du-vieux-limoilou/,-71.2022196,46.8122626
canada/quebec/rive-sud-de-montreal/,45.5322844,-73.4882977
canada/quebec/temiscamingue/,-78.7246393,47.2075221
canada/quebec/saguenay/,48.4280529,-71.0684923
canada/quebec/saguenay-secteur-de-luniversite-chicoutimi/,48.422992,-71.054055
canada/quebec/saguenay-secteur-de-sainte-therese-arvida/,48.425545,-71.184256
canada/quebec/temiscaming/,46.718235,-79.10012
canada/quebec/temiscouata/,-68.9357761,47.6445035
canada/quebec/sorel-tracy-secteur-de-saint-joseph-de-sorel/,46.0442881,-73.1096553
canada/quebec/sorel-tracy-secteur-du-centre-ville/,-73.1096553,46.0442881
canada/quebec/vaudreuil-huntingdon/,45.08672,-74.174698
canada/montreal/saint-jean-baptiste/,45.6509289,-73.5348244
canada/montreal/chenier/,45.580647,-73.533583
canada/montreal/caserne-17/,45.5934096,-73.6376591
canada/montreal/duncan/,45.4660102,-73.6336838
canada/montreal/hochelaga-maisonneuve/,45.5524684,-73.5395631
canada/montreal/riviere-des-prairies/,45.652208,-73.528776
canada/montreal/maisonneuve/,45.5524684,-73.5395631
canada/montreal/aeroport-de-montreal/,-73.749697,45.45764
canada/montreal/verdun/,45.454712,-73.569274
canada/montreal/molson/,45.508512,-73.563352
canada/montreal/sainte-anne-de-bellevue/,45.4032761,-73.9503608
canada/montreal/echangeur-decarie/,45.5024978,-73.6639323
canada/montreal/parc-pilon/,-73.595896,45.591579
canada/montreal/anjou/,45.615839,-73.569288
canada/montreal/drummond/,45.4993578,-73.5757763
canada/montreal/dorval/,45.45,-73.75
canada/montreal/ontario/,45.527396,-73.579245
canada/montreal/jardin-botanique/,45.5600018,-73.5630089
canada/montreal/saint-michel/,45.548919,-73.614335
hamilton/,43.2500208,-79.8660914
ottawa/,45.4215296,-75.6971931
toronto/,43.653226,-79.3831843
windsor/,42.3149367,-83.0363633
canada/ontario/barrie/,,
canada/ontario/belleville/,44.150528,-77.3955
canada/ontario/brampton/,43.69875,-79.780917
canada/ontario/brantford/,43.138611,-80.292639
canada/ontario/burlington/,43.315111,-79.802639
canada/ontario/chatham/,42.403694,-82.208306
canada/ontario/dorset/,45.224278,-78.932944
canada/ontario/grand-bend/,43.333083,-81.742889
canada/ontario/guelph/,43.551611,-80.264167
canada/ontario/hamilton-downtown/,43.257778,-79.861667
canada/ontario/hamilton-mountain/,43.229417,-79.862778
canada/ontario/hamilton-west/,43.257444,-79.90775
canada/ontario/kingston/,44.219722,-76.521111
canada/ontario/kitchener/,43.443833,-80.503806
canada/ontario/london/,42.97446,-81.200858
canada/ontario/mississauga/,43.54697,-79.65869
canada/ontario/morrisburg/,44.89975,-75.189944
canada/ontario/newmarket/,44.044306,-79.48325
canada/ontario/north-bay/,-79.449278,46.323194
canada/ontario/oakville/,43.486917,-79.702278
canada/ontario/oshawa/,43.945944,-78.894917
canada/ontario/ottawa-central/,45.382528,-75.714194
canada/ontario/ottawa-downtown/,45.434333,-75.676
canada/ontario/parry-sound/,45.337861,-80.038167
canada/ontario/petawawa/,45.996722,-77.441194
canada/ontario/peterborough/,44.301917,-78.346222
canada/ontario/port-stanley/,42.672083,-81.162889
canada/ontario/sarnia/,42.982278,-82.405083
canada/ontario/sault-ste-marie/,-84.309917,46.533194
canada/ontario/st.-catharines/,43.160056,-79.23475
canada/ontario/sudbury/,46.49194,-81.003105
canada/ontario/thunder-bay/,48.379389,-89.290167
canada/ontario/tiverton/,44.314472,-81.549722
canada/ontario/toronto-downtown/,43.662972,-79.388111
canada/ontario/toronto-east/,43.747917,-79.274056
canada/ontario/toronto-north/,43.781611,-79.417722
canada/ontario/toronto-west/,-79.5435,43.709444
canada/ontario/windsor-downtown/,-83.043667,42.315778
canada/ontario/windsor-west/,42.292889,-83.073139
canada/newbrunswick/saint-john/forest-hills/,45.308778,-66.008333
canada/newbrunswick/saint-john/west-side/,45.25315,-66.079931
canada/newbrunswick/moncton/thanet-street/,46.101389,-64.789639
canada/newbrunswick/saint-andrews/route-127/,45.086944,-67.073889
canada/newbrunswick/fredericton/aberdeen-street/,45.957361,-66.646583
canada/newbrunswick/bathurst/rough-waters-drive/,47.609528,-65.633528
canada/newbrunswick/saint-john/castle-street/,45.280278,-66.056111
canada/newbrunswick/norton/route-121/,45.642061,-65.701341
canada/newbrunswick/lower-newcastle/highway-11/,47.071091,-65.423559
canada/newbrunswick/saint-leonard/airport/,47.157778,-67.83
canada/northwestterritories/inuvik/,68.356994,-133.714063
canada/northwestterritories/norman-wells/,65.279676,-126.812887
canada/northwestterritories/yellowknife/,62.452084,-114.364031
canada/northwestterritories/fort-smith/,60.004486,-111.893377
canada/northwestterritories/marina-1/,62.48813,-114.358177
canada/northwestterritories/ndilo-1/,62.475464,-114.338376
canada/northwestterritories/fort-liard/,,
canada/nova-scotia/kentville/,45.071717,-64.479792
canada/nova-scotia/aylesford/,45.07267,-64.84033
canada/nova-scotia/halifax-johnston/,44.647175,-63.573689
canada/nova-scotia/lake-major/,44.71969,-63.48162
canada/nova-scotia/pictou/,45.682647,-62.69671
canada/nova-scotia/sydney/,46.142317,-60.172575
canada/nova-scotia/port-hawkesbury/,45.614028,-61.362122
south-africa/richardsbay/brackenham/,-28.731297,32.038988
south-africa/richardsbay/cbd/,-28.756224,32.049242
south-africa/richardsbay/mtunzini/,-28.9531466,31.7594384
south-africa/richardsbay/esikhaleni/,-28.8676839,31.9160211
south-africa/richardsbay/esikhaleni/,-28.8676839,31.9160211
south-africa/richardsbay/e/sampler-felixton/,,
ethiopia/addis-ababa/us-embassy/,9.058498,38.761642
ethiopia/addis-ababa/international-community-school/,8.996519,38.725433
beijing/dongchengdongsi/,39.929,116.417
beijing/dongchengtiantan/,39.886,116.407
beijing/xichengguanyuan/,116.339,39.929
beijing/xichengwanshouxigong/,39.878,116.352
beijing/chaoyangaotizhongxin/,39.982,116.397
beijing/chaoyangnongzhanguan/,39.937,116.461
beijing/haidianwanliu/,39.987,116.287
beijing/haidianbeibuxinqu/,40.09,116.174
beijing/haidianbeijingzhiwuyuan/,40.002,116.207
beijing/fengtaihuayuan/,39.863,116.279
beijing/fengtaiyungang/,39.824,116.146
beijing/shijingshangucheng/,39.914,116.184
beijing/fangshanliangxiang/,39.742,116.136
beijing/daxinghuangcunzhen/,39.718,116.404
beijing/yizhuangkaifaqu/,39.795,116.506
beijing/tongzhouxincheng/,39.886,116.663
beijing/shunyixincheng/,40.127,116.655
beijing/changpingzhen/,40.217,116.23
beijing/mentougoulongquanzhen/,39.937,116.106
beijing/pingguzhen/,40.143,117.1
beijing/huairouzhen/,40.328,116.628
beijing/miyunzhen/,40.37,116.832
beijing/yanqingzhen/,40.453,115.972
beijing/changpingdingling/,40.292,116.22
beijing/jingxibeibadaling/,40.365,115.988
beijing/jingdongbeimiyunshuiku/,40.499,116.911
beijing/jingdongdonggaocun/,40.1,117.12
beijing/jingdongnanyongledian/,39.712,116.783
beijing/jingnanyufa/,116.3,39.52
beijing/jingxinanliulihe/,39.58,116
beijing/qianmendongdajie/,39.899,116.395
beijing/yongdingmennadajie/,39.876,116.394
beijing/xizhimenbeidajie/,116.349,39.954
beijing/nansanhuanxilu/,39.856,116.368
beijing/dongsihuanbeilu/,39.939,116.483
beijing/,39.954592,116.468117
beijing/us-embassy/,39.954592,116.468117
shanghai/putuojiancezhan/,31.234814,121.410728
shanghai/yangpusipiao/,31.2659,121.536
shanghai/luwanshizhuanfuxiao/,31.201014,121.483231
shanghai/qingpudianshanhu/,31.0935,120.978
shanghai/hongkouliangcheng/,31.3008,121.467
shanghai/jinganjiancezhan/,31.2261,121.425
shanghai/xuhuishangshida/,31.1654,121.412
shanghai/pudongchuansha/,31.1907,121.703
shanghai/pudongzhangjiang/,31.2071,121.577
shanghai/pudongjiancezhan/,31.2284,121.533
shanghai/quanshipingjun/,31.230393,121.473704
shanghai/,121.4489017,31.2047372
shanghai/us-consulate/,31.2047372,121.4489017
guangzhou/,23.141191,113.258374
guangdong/guangzhou/liwanxicun/,23.1422,113.235
guangdong/guangzhou/gongyuanqian/,23.1331,113.26
guangdong/guangzhou/haizhubaogang/,23.105,113.261
guangdong/guangzhou/tianhecheng/,23.1358,113.317
guangdong/guangzhou/haizhuchisha/,23.0916,113.348
guangdong/guangzhou/huangpudashadi/,23.105,113.433
guangdong/guangzhou/fanyushiqiao/,22.9477,113.352
guangdong/guangzhou/huaduchengqu/,23.3917,113.215
guangdong/guangzhou/luogangzhenlong/,23.2783,113.568
guangdong/guangzhou/luhu/,23.1569,113.281
guangdong/guangzhou/tianhu/,23.6502,113.6246
guangdong/guangzhou/zhudong/,23.4208,113.073
guangdong/guangzhou/modieshazhan/,23.1064,113.3328
guangdong/zhuhai/doumen/,22.2281,113.299
guangdong/zhuhai/jida/,22.2611,113.574
guangdong/zhuhai/qianshan/,22.2294,113.495
guangdong/zhuhai/tangjia/,22.4251,113.628
guangdong/fushan/huijingcheng/,23.0019,113.1047
guangdong/fushan/wanliang/,23.0048,113.134
guangdong/fushan/huacaizhizhong/,23.0395,113.105
guangdong/fushan/sanshuiyundonghai/,23.1886,112.863
guangdong/fushan/nanhaiqixiangju/,23.0467,113.144
guangdong/fushan/gaomingkongtang/,22.8693,112.844
guangdong/fushan/sanshuijiancezhan/,23.1572,112.885
guangdong/shunde/shundesugang/,22.8054,113.292
guangdong/shunde/rongguijiedaoban/,22.7629,113.257
guangdong/shunde/jinjieju/,22.819722,113.261667
guangdong/jiangmen/donghu/,22.5931,113.0819
guangdong/jiangmen/taoyuandaqichaojizhan/,22.7279,112.929
guangdong/jiangmen/duanfen/,22.0608,112.7607
guangdong/jiangmen/shuangqiao/,22.5862,112.5814
guangdong/jiangmen/xiqu/,113.074,22.5811
guangdong/jiangmen/beijie/,22.6069,113.104
guangdong/jiangmen/guifengxi/,22.5328,113.024
guangdong/zhaoqing/kangkouzizhan/,23.1617,112.565
guangdong/zhaoqing/mugangzizhan/,23.0706,112.427
guangdong/zhaoqing/qixingyanzizhan/,112.4722,23.0786
guangdong/zhaoqing/chengzhongzizhan/,112.471,23.0528
guangdong/huizhou/jinguowan/,22.9398,114.3806
guangdong/huizhou/xiapu/,114.4053,23.08
guangdong/huizhou/xijiao/,23.3406,114.1077
guangdong/huizhou/henanan/,23.0528,114.4183
guangdong/huizhou/jiangbei/,23.1142,114.4103
guangdong/huizhou/huiyangchuanhu/,22.8172,114.3244
guangdong/huizhou/dayawanguanweihui/,22.7422,114.5317
guangdong/dongguan/guanchengershuichang/,23.06,113.7480556
guangdong/dongguan/shiyanzhongxue/,23.05361111,113.7819444
guangdong/dongguan/dongchengshijing/,23.01277778,113.7944444
guangdong/dongguan/nanchengxiping/,22.96583333,113.7383333
guangdong/dongguan/nanchengyuanling/,23.02777778,113.7461111
guangdong/zhongshan/zimaling/,22.5078,113.402
guangdong/zhongshan/changjianglvyouqu/,22.4886,113.434
guangdong/zhongshan/huabaiyuan/,22.5211,113.369
guangdong/zhongshan/zhangxi/,22.5481,113.365
guangdong/shaoguan/shibazhong/,24.7708,113.5783
guangdong/shaoguan/bihushanzhuang/,113.5397,24.8108
guangdong/shaoguan/yuanlinchu/,24.7992,113.6081
guangdong/shaoguan/shaoguanxueyuan/,24.7939,113.6414
guangdong/shaoguan/qujiangjiancezhan/,24.6861,113.5964
guangdong/shantou/jinpingzizhan/,23.3667,116.6794
guangdong/shantou/longhuzizhan/,23.3633,116.7244
guangdong/shantou/haojiangzizhan/,116.7258,23.2775
guangdong/shantou/chenghaizizhan/,116.7519,23.4714
guangdong/shantou/chaoyangzizhan/,23.2539,116.6092
guangdong/zhanjiang/shihuanjingjiancezhan/,21.2228,110.3928
guangdong/zhanjiang/huanbaojusushe/,21.1997,110.4019
guangdong/zhanjiang/xiashanyouyongchang/,21.2028,110.4111
guangdong/zhanjiang/zhanjiangyingjuyuan/,21.2706,110.3539
guangdong/maoming/shihuanbaojumaogangfenju/,111.0286,21.4689
guangdong/maoming/maoshihuaqixiao/,21.6533,110.9294
guangdong/maoming/jiankanglu/,21.6669,110.9067
guangdong/meizhou/jiayingdaxue/,24.3289,116.1278
guangdong/meizhou/meixianxincheng/,24.2719,116.0797
guangdong/meizhou/huanjingjiankongzhongxin/,24.2654,116.1248
guangdong/shanwei/shihuanbaoju/,22.775,115.3653
guangdong/shanwei/shizhengfu/,22.7953,115.3578
guangdong/shanwei/xinchengzhongxue/,115.3622,22.7925
guangdong/heyuan/shisanxiao/,23.7586,114.6944
guangdong/heyuan/shizilaishuichang/,23.7569,114.6778
guangdong/heyuan/heyuanzhongxue/,23.7233,114.6892
guangdong/yangjiang/yuanyanghu/,21.8586,111.9786
guangdong/yangjiang/nanenlu/,21.8536,111.9508
guangdong/qingyuan/chengquzhengfu/,23.7106,113.0208
guangdong/qingyuan/fupinqu/,23.6272,113.0622
guangdong/qingyuan/huanbaoju/,23.6936,113.0425
guangdong/chaozhou/xiyuanlu/,116.6339,23.6714
guangdong/chaozhou/danganju/,23.6706,116.6447
guangdong/chaozhou/shizhenggongsi/,23.6531,116.6175
guangdong/jieyang/donghugongyuan/,23.5353,116.3697
guangdong/jieyang/yuhuchujizhongxue/,23.5292,116.4094
guangdong/jieyang/shiyanxiaoxue/,23.5739,116.3594
guangdong/jieyang/xianjiao/,23.5486,116.3242
guangdong/yunfu/shihuanjingjiancezhan/,22.9394,112.0369
guangdong/yunfu/xinshifuzhihuibu/,112.0392,22.9169
guangdong/yunfu/muyangpaichusuo/,22.9539,112.0539
guangdong/shantou/chaonanzizhan/,23.2536,116.4019
guangdong/zhanjiang/mazhangquhuanbaoju/,21.2679,110.3316
guangdong/zhanjiang/potouquhuanbaoju/,21.2567,110.4558
guangdong/maoming/gaoling/,110.8592,21.6828
guangdong/guangzhou/maofengshansenlingongyuan/,23.5538,113.589
guangdong/yangjiang/manandong/,21.865,111.9494
guangdong/guangzhou/wanqingsha/,22.7108,113.5485
guangdong/shantou/nanaoxianzizhan/,23.42,117.0219
guangdong/fushan/jinjieju/,22.819722,113.261667
guangdong/fushan/shundesugang/,22.8054,113.292
guangdong/fushan/rongguijiedaoban/,22.7629,113.257
guangdong/heyuan/dongpu/,23.7586,114.6944
guangdong/heyuan/yuanxi/,23.7569,114.6778
guangdong/heyuan/laocheng/,23.7233,114.6892
guangdong/qingyuan/gaoxinqu/,23.6272,113.0622
guangdong/qingyuan/huanbaodalou/,23.6936,113.0425
guangdong/dongguan/guanchenglichuan/,23.06,113.7480556
guangdong/dongguan/dongchengzhushan/,23.05361111,113.7819444
guangdong/jieyang/yuhu/,23.5292,116.4094
guangdong/jieyang/xinxing/,23.5353,116.3697
guangdong/jieyang/dongxing/,116.3594,23.5739
guangdong/jieyang/xima/,23.5486,116.3242
guangdong/guangzhou/tiyuxi/,113.3208,23.1323
shenzhen/yantian/,22.590807,114.262078
shenzhen/xiabei/,22.762593,114.35232
shenzhen/xixiang/,22.575856,113.862238
shenzhen/songgang/,22.764405,113.848641
shenzhen/shajing/,22.73284,113.811677
shenzhen/pingshan/,114.346126,22.690824
shenzhen/nanyou/,22.516847,113.923192
shenzhen/nanao/,22.528186,114.496906
shenzhen/meisha/,22.598902,114.313483
shenzhen/longhua/,22.65158,114.022403
shenzhen/longgang/,22.720358,114.247468
shenzhen/liyuan/,22.5500005,114.0960791
shenzhen/kuiyong/,22.630626,114.423948
shenzhen/huaqiaocheng/,22.542454,113.987495
shenzhen/honghu/,22.562334,114.116872
shenzhen/henggang/,22.648548,114.208946
shenzhen/guangming/,22.723285,114.417292
shenzhen/guanlan/,22.696848,114.04539
shenzhen/fuyong/,22.670922,113.823012
shenzhen/,22.543099,114.057868
china/shantou/haojiangzizhan/,23.2775,116.7258
china/shantou/jinpingzizhan/,23.3667,116.6794
china/shantou/chaonanzizhan/,23.2536,116.4019
china/shantou/chenghaizizhan/,23.4714,116.7519
china/shantou/chaoyangzizhan/,116.6092,23.2539
china/shantou/longhuzizhan/,23.3633,116.7244
shantou/,23.353299,116.681838
china/shaoguan/bihushanzhuang/,24.81119444,113.5593889
china/shaoguan/shibazhong/,24.769519,113.586606
china/shaoguan/yuanlinchu/,24.795928,113.598061
china/shaoguan/qujiangjiancezhan/,24.68636111,113.5970833
china/shaoguan/shaoguanxueyuan/,113.6734722,24.77908333
shaoguan/,24.810403,113.597522
china/qingyuan/huanbaoju/,23.6936,113.0425
china/qingyuan/fengchengjieban/,23.7106,113.0208
china/qingyuan/fupinqu/,23.6272,113.0622
qingyuan/,113.056031,23.681764
china/heyuan/shizilaishuichang/,23.7569,114.6778
china/heyuan/shisanxiao/,23.7586,114.6944
china/heyuan/heyuanzhongxue/,23.7233,114.6892
heyuan/,23.743538,114.700447
zhuhai/,113.576726,22.270715
foshan/,23.021548,113.121416
zhanjiang/,21.270702,110.359387
zhongshan/,22.516686,113.392795
jiangmen/,22.578738,113.081901
zhaoqing/,23.047192,112.465091
dongguan/,23.020536,113.751765
huizhou/,23.111847,114.416196
shunde/,22.80524,113.293359
chaozhou/,23.65695,116.622604
jieyang/,23.549993,116.372831
maoming/,21.662999,110.925456
meizhou/,24.288615,116.122239
shanwei/,22.786211,115.375279
yangjiang/,21.857958,111.982232
yunfu/,22.915094,112.044491
guangdong/guangzhou/us-consulate/,23.141191,113.258374
chengdu/,104.0670559,30.6250145
china/chengdu/jinquanlianghe/,30.72358333,103.97275
china/chengdu/shilidian/,30.6872,104.176
china/chengdu/sanwayao/,104.079,30.5706
china/chengdu/shahepu/,30.63,104.1113889
china/chengdu/liangjiaxiang/,30.685,104.074
china/chengdu/caotangsi/,30.6544,104.026
china/chengdu/renmingongyuan/,104.054,30.6578
china/chengdu/lingyansi/,31.0283,103.613
china/chengdu/junpingjie/,30.6578,104.054
china/chengdu/dashixilu/,30.65638889,104.0238889
china/chengdu/shahejinjiangduan/,30.61503,104.08542
china/chengdu/shiqingshaonianhuodongzhongxin/,30.71012,104.05409
china/chengdu/wuhoukejiyuan/,30.63808,103.99101
china/chengdu/liduhuayuan/,30.62862,104.03461
china/chengdu/yulin/,30.62729,104.05846
china/chengdu/xiongmiaojidi/,30.73846,104.14576
china/chengdu/gaoxinxiquchuangxinzhongxin/,30.72998,103.95959
china/chengdu/longquanyiquhuanjingjiancezhan/,30.5588888,104.2725
china/chengdu/qingbaijiangquhuanjingjiancezhan/,30.88759,104.25266
china/chengdu/chengxiangzhen/,30.85354,104.33322
china/chengdu/xinduquhuanjingjiancezhan/,30.82539,104.17008
china/chengdu/sanyuanwaiguoyuxuexiao/,104.15675,30.78802
china/chengdu/chengdushidierxingzhengxueyuan/,30.69486,103.85463
china/chengdu/yishuxuexiao/,30.75449,103.78828
china/chengdu/jintangxianwuzhuangbu/,30.86431,104.40121
china/chengdu/shuangliuxianhuanjingjiancezhan/,30.57492,103.92329
china/chengdu/huayangzhen/,30.50972,104.04997
china/chengdu/pixiandangxiao/,30.79105,103.90681
china/chengdu/tuanjiezhen/,30.81699,103.98148
china/chengdu/jianxingjiashulou/,30.5866666,103.62
china/chengdu/pujiangxianhuanjingjiancezhan/,30.19519,103.49844
china/chengdu/huarunxuexiao/,103.80891,30.41974
china/chengdu/pengzhoushihuanbaoju/,30.997,103.94807
china/chengdu/qionglaishuiyegongsi/,30.4175,103.438333
china/chengdu/chongzhoushixingzhizhongxue/,30.62746,103.67421
china/chengdu/jinzhongwaishixiao/,30.8672222,104.411388
china/chengdu/xinjinzhongxuewaiguoyushiyanxuexiao/,30.4133333,103.821666
china/chengdu/hongxingdianzhan/,103.882777,30.8063888
china/chengdu/jianyangshihuanjingjiancezhan/,30.41416,104.53944
chengdu/us-consulate/,30.6250145,104.0670559
china/mianyang/fuleshan/,31.4747,104.7778
china/mianyang/shirenda/,31.4539,104.7536
china/mianyang/gaoxinquzilaishuigongsi/,31.4656,104.6717
china/mianyang/sanshuichang/,31.5072,104.7283
mianyang/,104.679114,31.46745
china/mianyang/mianyangboyaxiaoxue/,31.48514,104.705811
china/mianyang/pingwuxianhuanbaoju/,32.4127777,104.552777
china/mianyang/beichuanxianjiancezhan/,31.6425,104.418888
china/mianyang/yantingxianhuanbaoju/,31.2091666,105.384444
china/mianyang/santaixianzhengwuzhongxin/,31.1938888,105.159166
china/mianyang/jiancezhan/,31.7805555,104.762777
china/mianyang/chengbeixinqu/,31.6308333,105.176111
china/deyang/dongshangongyuan/,31.1208,104.4219
china/deyang/xixiaoqu/,31.1333,104.3883
china/deyang/shijianchayuan/,31.1167,104.4053
china/deyang/naihuocailiaochang/,31.1108,104.3539
deyang/,31.126856,104.398021
china/deyang/deyangshijiaoyuju/,31.129213,104.411064
china/deyang/sanzhongxin/,31.1158333,104.192777
china/panzhihua/longlongping/,26.57098,101.68912
china/panzhihua/hemenkou/,26.5928,101.5769
china/panzhihua/bingcaogang/,26.585,101.7169
china/panzhihua/renhe/,26.5017,101.7453
china/panzhihua/jinjiang/,26.5569,101.8472
panzhihua/,26.582347,101.718637
china/panzhihua/sishizhongxiao/,26.567,101.7227
china/panzhihua/panzhihuazhongxinyiyuan/,26.547046,101.714061
china/panzhihua/miyixianzhengfu/,26.8927777,102.108888
china/yibin/shimazhongxue/,104.5969,28.8194
china/yibin/shiwei/,28.76611,104.6225
china/yibin/yibinsizhong/,28.7867,104.6061
china/yibin/shizhengfu/,28.76389,104.6417
china/yibin/huangjinzui/,28.71583,104.5761
china/yibin/shapingzhongxue/,28.7989,104.6789
yibin/,28.751812,104.643382
china/yibin/yibinshangzhixiao/,28.74639,104.624819
china/yibin/jianganxianhuanjingjiancezhanbangonglou/,28.7330555,105.071388
china/yibin/gongxianhuanbaoju/,28.4563888,104.707777
china/zigong/datangshan/,29.3628,104.7547
china/zigong/yanmalu/,29.3586,104.7214
china/zigong/tanmulinjie/,104.7747,29.3564
china/zigong/chunhualu/,29.3411,104.7692
zigong/,29.33903,104.778442
china/zigong/zigongjiuzhuzhan/,29.322942,104.799753
china/zigong/fushunxianxingzhengzhongxin/,29.1822222,104.974722
china/luzhou/jiushishan/,28.9583,105.4306
china/luzhou/xiaoshishangmatou/,28.9026,105.4436
china/luzhou/lantianxianqiao/,105.4322,28.8558
china/luzhou/shihuanjianzhan/,28.8833,105.4322
luzhou/,28.87182,105.442347
china/luzhou/luzhouyixueyuanchengbeixiaoqu/,28.909179,105.421739
china/luzhou/luxianhuanbaoju/,29.1544083,105.374919
china/luzhou/naxiquhuanbaoju/,28.7703944,105.361691
china/luzhou/xuyongxianzhongyiyiyuan/,28.1644444,105.433055
china/luzhou/hejiangxianchengguanzhongxue/,28.8095305,105.827416
china/luzhou/gulinxianjiansheju/,28.0439611,105.808261
china/nanchong/xishanfengjingqu/,30.8064,106.056
china/nanchong/nanchongshiwei/,106.0789,30.8023
china/nanchong/nanchonglianyouchang/,30.8217,106.1031
china/nanchong/gaopingqujiancezhan/,106.1064,30.7856
china/nanchong/jialingquhuanbaoju/,30.7636,106.0642
china/nanchong/shihuanjingjiancezhan/,30.8388,106.1087
nanchong/,30.837793,106.110698
china/nanchong/nanchongshiyizhong/,30.82124,106.081412
china/nanchong/nanbuxianhuanbaoju/,31.3531388,106.033
china/nanchong/penganxianhuanbaoju/,31.0274444,106.417277
china/nanchong/yilongxianhuanbaoju/,31.2727444,106.296958
china/nanchong/xichongxianhuanbaoju/,30.9858333,105.879166
china/nanchong/banxiakelishengchanjidi/,31.5439722,106.000069
china/najiang/shijiancezhan/,29.5953,105.0331
china/najiang/dongxingquzhengfu/,29.5947,105.0717
china/najiang/najiangerzhong/,29.5817,105.0653
china/najiang/najiangribaoshe/,29.5822,105.0406
neijiang/,29.580229,105.058433
china/najiang/weiyuanxianhuanbaoju/,29.5366666,104.660277
china/najiang/longchangxianguoshuiju/,29.3438888,105.299166
china/suining/shixihao/,30.5797,105.7519
china/suining/shijiancezhan/,30.6133,105.68
china/suining/xingzhengzhongxin/,30.6347,105.8161
china/suining/meiningshipingongsi/,30.475,105.5956
suining/,30.532847,105.592898
china/suining/suizhongshiyanxiao/,30.5188888,105.612222
china/leshan/niuerqiao/,29.5844,103.7627
china/leshan/shidisanshuichang/,29.6007,103.7506
china/leshan/shijiancezhan/,29.5634,103.757
china/leshan/leshandafujingqu/,29.5467,103.7705
leshan/,29.552106,103.765568
china/leshan/shawanquhuanbaoju/,29.4213888,103.551388
china/leshan/jianweixianzhengfu/,29.2122222,103.946944
china/leshan/muchuanxianhuanbaoju/,28.9566666,103.903611
china/leshan/huanjingjiancezhan/,29.6183333,103.499722
china/leshan/jiajiangxianhuanjingjiancezhan/,29.7366666,103.57
china/leshan/putishan/,29.4086111,103.822777
china/leshan/emeishanshuijingguangchang/,27.8953,102.2311
china/leshan/emeishanshanyuhu/,27.8953,102.2311
china/meishan/heilongtan/,30.0506,103.8986
china/meishan/qixiangju/,30.0874,103.8416
china/meishan/xuguangxiaoqu/,30.0691,103.8495
china/meishan/shijiancezhan/,30.062,103.8341
meishan/,30.07544,103.848538
china/meishan/moyiguan/,30.0506,103.8986
china/meishan/renshouxianguotuju/,29.9864,104.1454
china/meishan/hongyaxianhuanbaoju/,29.9052777,103.366944
china/meishan/danlingxianhuanbaoju/,30.0233333,103.515555
china/ziyang/lianhuashan/,30.1366,104.6617
china/ziyang/ziyangzhongxue/,30.1506,104.6356
china/ziyang/sisanyichang/,30.1377,104.6289
china/ziyang/shifanxiao/,30.1142,104.6469
china/ziyang/qufayuan/,30.1259,104.6294
ziyang/,30.128901,104.627636
china/ziyang/hedongxinquyinaolu/,30.4141666,104.539444
china/guangan/xiaopingjiuji/,30.518,106.631
china/guangan/shiwei/,30.4576,106.6303
china/guangan/youyizhongxue/,30.4663,106.6271
china/guangan/rengonghu/,30.4844,106.6406
china/guangan/guangdianhuayuan/,30.4551,106.6388
china/guangan/beichenxiaoxue/,30.4865,106.6351
china/guangan/huaningshihuanbaoju/,30.3838888,106.271666
china/yaan/daxing526tai/,30.0125,103.009
china/yaan/jiananchang/,29.9899,103.0013
china/yaan/shizhengfu/,29.9834,103.0109
china/yaan/chuannongda/,29.9816,103.0001
china/yaan/baoxingxianhuanbaoju/,30.3838888,102.812222
china/yaan/hanyuanxianfutangcunzizhan/,29.365,102.622222
china/yaan/shimianxianzhengwuzhongxin/,102.357222,29.2305555
china/yaan/zhishuichang/,30.0954611,103.105177
china/dazhou/dazhouzhiyejishuxueyuan/,107.5272,31.2797
china/dazhou/shihuanjingjiancezhan/,31.215,107.525
china/dazhou/fenghuangxiaoqu/,31.2108,107.4967
china/dazhou/daxianjiguanbinguan/,31.1956,107.5069
china/dazhou/shizhengzhongxin/,31.2058,107.4611
china/dazhou/dazhuxianhuanbaoju/,30.7358333,107.1975
china/dazhou/xuanhanxiandierzhongxue/,31.3619444,107.713055
china/dazhou/hexizhizhong/,32.0819444,108.029722
china/dazhou/xindachuanqurenminyiyuan/,31.2077777,107.511111
china/aba/jiuzhaigou/,,
china/abazhou/zhounongkesuo/,31.9286,102.1755
china/abazhou/zhoujiancezhan/,31.9025,102.2218
china/abazhou/mashixiao/,31.8934,102.2402
china/aba/zhounongkesuo/,31.9286,102.1755
china/aba/zhoujiancezhan/,31.9025,102.2218
china/aba/mashixiao/,31.8934,102.2402
china/aba/songpanxianchengbeizizhan/,32.6597222,103.602777
china/aba/abaxianhuanbaolinyeju/,32.9069444,101.708333
china/aba/hongyuanxianrenminzhengfudayuan/,32.8002777,102.548888
china/aba/jinchuanxianhuanbaolinyeju/,31.4725,102.073611
china/aba/jiuzhaigouxianhuanbaolinyeju/,32.8880555,103.459722
ngawa-zong/,31.899413,102.224653
china/ganzi/hailuogou/,,
china/ganzi/jiangjunqiao/,30.0506194,101.960011
china/ganzi/shuiqiaozi/,30.0475,101.9603
china/ganzi/xinlongxianzhengfu/,30.9413888,100.31
china/guangyuan/heishipo/,32.4535,105.8945
china/guangyuan/laocheng/,32.4429,105.8242
china/guangyuan/nanba/,32.4246,105.8153
china/guangyuan/jiancezhan/,32.4285,105.8624
china/guangyuan/xiuchengbadian/,32.2930555,105.521944
china/guangyuan/dazhongbazizhan/,32.6502777,105.88
guangyuan/,32.435435,105.843357
china/bazhong/nankangongyuan/,31.8475,106.7583
china/bazhong/shihuanbaoju/,31.8711,106.7389
china/bazhong/bazhongzhongxue/,31.8531,106.7594
china/bazhong/shiliuzhong/,31.8456,106.7608
china/bazhong/sushanping/,31.87888889,106.7513889
china/bazhong/zhiyezhongxue/,31.85805556,106.7619444
china/bazhong/chaoyangxinqu/,32.3486111,106.823888
china/bazhong/dengkexiaoxue/,31.7933888,106.636222
china/bazhong/xinyixiaoxue/,31.5882777,107.08875
china/bazhong/zhengwuzhongxin/,31.9141666,107.244722
bazhong/,31.867903,106.747478
