city,country,lat,lng,top,right,bottom,left
Randburg,South Africa,-26.1438399,27.9951862,-26.0025355,28.0474469,-26.2253129,27.8770918
Surakarta,Indonesia,-7.5754887,110.8243272,-7.523208,110.8685012,-7.59521,110.769123
Dumaguete,Philippines,9.3068402,123.3054467,9.3324781,123.3137981,9.2589862,123.2503367
Tangerang,Indonesia,-6.2023936,106.6527099,-6.097141,106.748612,-6.2562341,106.551456
Worcester,United Kingdom,52.193636,-2.221575,52.2313919,-2.1573038,52.1616362,-2.2632029
Yogyakarta,Indonesia,-7.7955798,110.3694896,-7.7663509,110.405084,-7.84015,110.3446059
Pasadena  CA,United States,34.1477849,-118.1445155,34.251905,-118.0654789,34.1170368,-118.1981391
Algiers,Algeria,36.753768,3.0587561,36.7587844,3.0616236,36.7488675,3.0540584
Annaba,Algeria,36.9264582,7.7525352,36.9712211,7.7951431,36.8656479,7.6954079
Aversa,Italy,40.9731743,14.2076688,40.9920831,14.2268033,40.9490211,14.1833739
Bloomington  IN,United States,39.165325,-86.5263857,39.22107,-86.4712941,39.1213559,-86.592398
Batna,Algeria,35.5610218,6.1739116,35.6445679,6.2781502,35.5123258,6.0786152
Macerata,Italy,43.2984268,13.4534767,43.3133078,13.4876283,43.2789768,13.4161256
Bejaia,Algeria,36.7508896,5.0567333,36.833659,5.1084709,36.7055347,4.9087
Chiba,Japan,35.6050574,140.1233063,36.1041115,140.881206,34.8991227,139.7394379
Waco  TX,United States,31.549333,-97.1466695,31.6599311,-97.04598,31.446727,-97.3291759
Fukuoka,Japan,33.5903547,130.4017155,33.8741158,130.4952857,33.4251209,130.0327939
Blida,Algeria,36.4798683,2.8005677,36.5172071,2.8684831,36.4433975,2.7320336
Ribeirao Preto,Brazil,-21.170511,-47.8102452,-21.0596413,-47.6468184,-21.3684894,-47.9894466
Constantine,Algeria,36.360155,6.642433,36.4490529,6.7665481,36.2589189,6.5284056
Gifu,Japan,35.4232984,136.7606537,35.543131,136.8861857,35.3513892,136.6783857
Orillia  ON,Canada,44.6082465,-79.4196783,44.643757,-79.364009,44.561919,-79.475656
Medea,Algeria,36.2853847,2.7680247,36.3364236,2.823658,36.2312581,2.7220345
Gladstone,Australia,-23.8426494,151.2488592,-23.8311127,151.264427,-23.8517563,151.2315068
Oran,Algeria,35.6976541,-0.6337376,35.7700541,-0.5530071,35.6451955,-0.7298183
Niksic,Montenegro,42.7804735,18.9561661,42.8094439,18.9982796,42.7371471,18.897965
Hiroshima,Japan,34.3852029,132.4552927,34.6156546,132.6960798,34.2966813,132.1788746
Setif,Algeria,36.1969027,5.4150871,36.2473189,5.5072403,36.1337157,5.3331865
Kozhikode (Calicut),India,11.2587531,75.78041,11.3706559,75.8911514,11.1410136,75.7304765
Fredericksburg  VA,United States,38.3031837,-77.4605399,38.326445,-77.447088,38.270245,-77.5326861
Pordenone,Italy,45.9626398,12.6551362,45.9958563,12.7013575,45.9184266,12.6263353
Jamnagar,India,22.4707019,70.05773,22.5539791,70.1298952,22.3946818,69.9869318
Conroe  TX,United States,30.3118769,-95.4560512,30.404194,-95.3903781,30.203375,-95.6567878
Owen Sound,Canada,44.5690305,-80.9405602,44.6096379,-80.891868,44.540959,-80.964285
Kawasaki,Japan,35.5308224,139.70304,35.6428201,139.8359058,35.4693556,139.4489446
Santa Clarita  CA,United States,34.3916641,-118.542586,34.4775239,-118.3760711,34.3404979,-118.6131919
Kobe,Japan,34.690083,135.1955112,34.8906647,135.3050492,34.6143853,134.9099108
Oeiras,Portugal,38.6968607,-9.3146014,38.7134567,-9.2961131,38.6731469,-9.3296765
Elche,Spain,38.2699329,-0.7125608,38.2823109,-0.6536157,38.2507469,-0.7257486
Sao Carlos,Brazil,-22.0087086,-47.8909142,-21.5969867,-47.7195937,-22.1614874,-48.0909288
Kumamoto,Japan,32.8031004,130.7078911,32.9799781,130.8289729,32.6602944,130.5714699
Tizi-ouzou,Algeria,36.7021906,4.0593255,36.7565764,4.1750836,36.6438373,3.9758921
Kyoto,Japan,35.0116363,135.7680294,35.3211923,135.878779,34.8748598,135.5589845
Sao Jose do Rio Preto SP,Brazil,-20.811761,-49.3762272,-20.7374394,-49.3014438,-20.8961885,-49.4632672
Mahe,Seychelles,-4.6826693,55.480396,-4.5606996,55.5390991,-4.8069266,55.3651575
Matsudo,Japan,35.7876491,139.903093,35.8498127,140.0014687,35.7464171,139.8796613
Vercelli,Italy,45.3202272,8.4185735,45.3419825,8.4576716,45.2985168,8.3904657
Bhavnagar,India,21.7644725,72.1519304,21.8069582,72.2277793,21.7207091,72.0820329
Pyrgos,Greece,37.6718487,21.4432257,37.682234,21.4654502,37.6617587,21.4232622
Nagasaki,Japan,32.7502856,129.877667,32.9686469,129.9938174,32.5491648,129.5528053
Nagoya,Japan,35.1814464,136.906398,35.2604546,137.0609248,35.0338724,136.7918103
Veria,Greece,40.5193604,22.2052228,40.655142,22.4046833,40.3001831,21.9279686
Corfu,Greece,39.6242621,19.9216777,39.8222299,20.1225566,39.3603692,19.6286234
Nara,Japan,34.6850869,135.8050002,34.7577714,136.0710847,34.5581562,135.7131024
Niigata,Japan,37.9161924,139.0364126,38.0196382,139.2668815,37.678484,138.7842972
Selangor,Malaysia,3.0738379,101.5183469,3.8706219,101.970064,2.5338311,100.7118065
Hubli,India,15.3647083,75.1239547,15.4155393,75.1921463,15.313658,75.0261497
Plymouth  MI,United States,42.3714253,-83.4702132,42.384451,-83.4455209,42.358502,-83.486869
Osaka,Japan,34.6937378,135.5021651,34.7687543,135.5991712,34.5861474,135.3728857
Saitama,Japan,35.8617292,139.6454822,36.0025179,139.7574037,35.8286787,139.5401085
Sapporo,Japan,43.0620958,141.3543763,43.1897925,141.5054491,42.7807293,140.9905051
Luanda,Angola,-8.8399876,13.2894368,-8.756154,13.4101221,-8.9509107,13.1580869
Sendai,Japan,38.268215,140.8693558,38.4546628,141.0469185,38.1724961,140.4694181
Szekesfehervar,Hungary,47.1860262,18.4221358,47.28114,18.553754,47.107929,18.3287498
Shizuoka,Japan,34.9771201,138.3830845,35.6459882,139.1763275,34.5945504,137.4741272
Hameenlinna,Finland,60.9928787,24.4590243,61.3249545,25.2692689,60.754036,23.7561038
Tokyo,Japan,35.6894875,139.6917064,35.8986468,153.9876916,24.2241404,138.942758
Durango  CO,United States,37.27528,-107.8800667,37.326594,-107.814287,37.2185008,-107.920432
Belem,Brazil,-1.4557794,-48.4901968,-1.047698,-48.2968469,-1.5501914,-48.6276828
Yokohama,Japan,35.4437078,139.6380256,35.5928585,139.725382,35.3126165,139.4647976
Yokosuka,Japan,35.2813412,139.6722005,35.3303741,139.7472657,35.1899987,139.5765989
Chateaubriant,France,47.720948,-1.3762239,47.7481189,-1.332624,47.6917811,-1.449706
Aktau,Kazakhstan,43.6410973,51.1985113,43.7487772,51.3404845,43.5701931,51.1509705
Aktobe,Kazakhstan,50.2839339,57.166978,50.3603564,57.3479352,50.1870111,57.0396422
Parsippany-Troy Hills  NJ,United States,40.8652865,-74.4173877,40.9019109,-74.34088,40.824991,-74.533554
Almaty,Kazakhstan,43.2220146,76.8512485,43.4057021,77.1467686,43.0287453,76.7415618
Astana,Kazakhstan,51.1605227,71.4703558,51.2903453,71.7427397,51.0055461,70.9179879
New City  NY,United States,41.1475954,-73.989306,41.1921939,-73.9438288,41.10742,-74.0250959
Woodbridge  NJ,United States,40.5575986,-74.2846022,40.608903,-74.228289,40.4908049,-74.338493
Presov,Slovakia,49.0018324,21.2393119,49.0468521,21.3351195,48.9448156,21.1569882
Atyrau,Kazakhstan,47.0944959,51.9238373,47.1850274,52.0539091,47.009256,51.8186953
Columbus  IN,United States,39.2014404,-85.9213796,39.2745169,-85.793013,39.1205919,-86.006024
Bathinda,India,30.210994,74.9454745,30.2706319,75.0273513,30.1469084,74.8900224
Gadsden  AL,United States,34.014264,-86.0066386,34.0793818,-85.934669,33.946742,-86.1110839
Pavlodar,Kazakhstan,52.2873032,76.9674023,52.4026182,77.0708084,52.2305331,76.8587958
Petropavl,Kazakhstan,54.8732209,69.1505478,54.928503,69.2587781,54.8192831,69.0621185
Karaganda (Qaraghandy),Kazakhstan,49.8046835,73.1093826,49.993671,73.3718492,49.6542938,72.9660888
Batam,Indonesia,1.0456264,104.0304535,1.1996769,104.357741,0.474655,103.7484891
Champaign  IL,United States,40.1164204,-88.2433829,40.1670741,-88.2210401,40.062188,-88.333179
Torres Vedras,Portugal,39.0917759,-9.2600341,39.1350726,-9.2136132,39.0509895,-9.3123551
Amravati,India,20.9374238,77.7795513,21.0047146,77.8367616,20.8034598,77.6867294
Chaves,Portugal,41.7410586,-7.4706046,41.8800099,-7.1929479,41.5812736,-7.6205558
Hradec Kralove,Czech Republic,50.2103605,15.825211,50.267944,15.9355479,50.1598949,15.7467376
Bremerton  WA,United States,47.5650067,-122.6269768,47.6068969,-122.602158,47.5017289,-122.8045771
Capua,Italy,41.1061258,14.2130486,41.1196376,14.2400316,41.0887844,14.1871269
Duluth  MN,United States,46.7866719,-92.1004852,46.8807361,-91.920616,46.6492409,-92.301192
Vientiane,Laos,17.9757058,102.6331035,18.0361139,102.6774216,17.8847653,102.5341096
Alice Springs,Australia,-23.698042,133.8807471,-23.691614,133.8859969,-23.7070929,133.874263
Ernakulam,India,9.9816358,76.2998842,10.0725583,76.3765817,9.8691909,76.240005
Macao,Macao,22.198745,113.543873,22.2170639,113.6127001,22.1066001,113.5276053
Bintulu,Malaysia,3.171322,113.0419069,3.697947,113.7460657,2.7337998,112.8706049
Florina,Greece,40.7845262,21.4131222,40.7941675,21.4287362,40.7736395,21.3817426
Warangal,India,17.9689008,79.5940544,18.0169363,79.6522522,17.8993616,79.5561218
George Town,Malaysia,5.4356367,100.3091,5.4520208,100.3222922,5.359739,100.272712
Ipoh,Malaysia,4.597479,101.090106,4.698229,101.1518441,4.5216771,101.0313714
Serdang,Malaysia,3.021998,101.7055411,3.053654,101.7306071,2.964276,101.6406781
Grindsted,Denmark,55.7583217,8.9249494,55.8483009,9.0759088,55.6029389,8.7491428
Johor Bahru,Malaysia,1.492659,103.7413591,1.63564,103.8252219,1.45407,103.5940327
Farnborough,United Kingdom,51.2868939,-0.752615,51.3200843,-0.7332799,51.2688813,-0.8056054
Gaborone,Botswana,-24.6282079,25.9231471,-24.5065762,26.0222162,-24.7120382,25.8387927
Klang,Malaysia,3.044917,101.4455621,3.136154,101.5257308,2.949781,101.355583
Barletta,Italy,41.3196635,16.2838207,41.3336832,16.3293262,41.3013127,16.2345093
Kluang,Malaysia,2.030068,103.3184639,2.095483,103.3884069,1.953405,103.223844
Veenendaal,Netherlands,52.0263009,5.5544309,52.0497363,5.5903639,51.9968219,5.5125605
Kuala Lumpur,Malaysia,3.139003,101.686855,3.2433789,101.758529,3.0336329,101.61545
Kuala Terengganu,Malaysia,5.329624,103.1370142,5.8178619,103.1910361,5.149968,102.8649568
Kuantan,Malaysia,3.7633859,103.2201828,4.02029,103.4065901,3.596864,103.1220139
Kuching,Malaysia,1.6076812,110.3785438,1.804763,110.5260761,1.4315987,110.126787
Thrissur,India,10.5276416,76.2144349,10.6026491,76.299574,10.4201261,76.1469269
Kamloops,Canada,50.674522,-120.3272674,50.86624,-120.0416551,50.6172699,-120.555804
Malacca,Malaysia,2.189594,102.2500868,2.3065749,102.3472987,2.168183,102.1557088
Brunswick  GA,United States,31.1499528,-81.4914894,31.203643,-81.4007769,31.103405,-81.5302031
Melaka,Malaysia,2.194418,102.249063,2.4992829,102.5960011,2.0297549,101.8368227
Caceres,Spain,39.4752671,-6.3722951,39.6487428,-6.0787399,39.1552618,-6.8020698
Davis  CA,United States,38.5449065,-121.7405167,38.578756,-121.6756133,38.534878,-121.7942741
Kahului  HI,United States,20.8893351,-156.4729469,20.9092021,-156.4097381,20.846607,-156.503142
Petaling Jaya,Malaysia,3.1278871,101.5944885,3.204971,101.6637271,3.070996,101.5526301
Oxnard  CA,United States,34.1975048,-119.1770516,34.2614,-119.119938,34.119005,-119.3292161
Tatabanya,Hungary,47.569246,18.404818,47.6096499,18.4973549,47.486426,18.3379901
Seremban,Malaysia,2.725889,101.9378239,2.80869,102.0577387,2.615615,101.8862489
Shah Alam,Malaysia,3.073281,101.518461,3.2230169,101.5914262,2.958198,101.4418336
Crete,Greece,35.240117,24.8092691,35.6956945,26.3525195,34.8008834,23.4716205
Subang Jaya,Malaysia,3.0567333,101.5851192,3.085025,101.6210431,2.975538,101.5493918
Nanchang,China,28.682892,115.858198,29.1223886,116.5654826,28.157839,115.4387052
Sungai Petani,Malaysia,5.643589,100.4894179,5.776392,100.6710261,5.5342159,100.426041
Taiping,Malaysia,4.851932,100.7416339,4.8832449,100.8137279,4.806305,100.6931441
Sioux Falls  SD,United States,43.5445959,-96.7311034,43.6163641,-96.6511341,43.465702,-96.840384
Male,Maldives,4.1754959,73.5093474,4.2233247,73.5467929,4.1691779,73.4822152
Waipahu  HI,United States,21.3866667,-158.0091667,21.398933,-157.9904531,21.369528,-158.031853
Tubingen,Germany,48.5216364,9.0576448,48.5937085,9.1310816,48.4505798,8.9644852
Port Macquarie,Australia,-31.433333,152.9,-31.4052683,152.9383746,-31.5171622,152.8490269
Majuro,Marshall Islands,7.1164214,171.1857736,7.2264443,171.3868178,7.0512628,171.0251189
Como,Italy,45.7992814,9.092748,45.8421882,9.1369503,45.7588832,9.0312422
Pisa,Italy,43.7228386,10.4016888,43.7394813,10.4453807,43.6740201,10.3453756
Riffa,Bahrain,26.1226062,50.534262,26.1617937,50.5952597,26.0600213,50.5061245
Rethymno,Greece,35.3643708,24.4820373,35.3739755,24.5674559,35.2522865,24.424649
Sarnia,Canada,42.974536,-82.4065901,43.1566691,-82.227262,42.91219,-82.460007
Springfield  MA,United States,42.1014831,-72.589811,42.1620859,-72.471149,42.063595,-72.6215339
Dover  DE,United States,39.158168,-75.5243682,39.2106298,-75.440637,39.102202,-75.5862029
Ningbo,China,29.868336,121.54399,30.436352,122.279017,28.8532555,120.8670415
Santarem,Portugal,39.2848804,-8.704075,39.4830094,-8.5431227,39.1687465,-8.8994475
Ashford,United Kingdom,51.1464659,0.875019,51.1841519,0.914884,51.1228136,0.8276781
Ulaanbaatar,Mongolia,47.8863988,106.9057439,47.9591229,107.1043,47.8241773,106.6994427
Lewisburg  PA,United States,40.9645293,-76.8844101,40.971831,-76.877143,40.954398,-76.9087909
Guadalajara,Spain,40.632489,-3.16017,40.6458997,-3.1429369,40.6184806,-3.2034081
Kenosha  WI,United States,42.5847425,-87.8211854,42.6381249,-87.8066329,42.5377439,-87.996961
Seinajoki,Finland,62.787735,22.8504337,62.8132169,22.9231455,62.7671153,22.7355966
Redwood City  CA,United States,37.4852152,-122.2363548,37.569534,-122.1397749,37.4467379,-122.2880789
Ciudad Juarez,Mexico,31.6903638,-106.4245478,31.7839854,-106.2940898,31.5238034,-106.6037812
Napa  CA,United States,38.2975381,-122.286865,38.3508341,-122.2221959,38.221091,-122.357721
Ioannina,Greece,39.6650288,20.8537466,39.6887974,20.8724933,39.63826,20.8218806
Irvine  CA,United States,33.6839473,-117.7946942,33.7744771,-117.678463,33.5995231,-117.870041
El Centro  CA,United States,32.792,-115.5630514,32.817851,-115.5181059,32.754442,-115.5949491
Navi Mumbai,India,19.0330488,73.0296625,19.1861914,73.1620789,18.8465126,72.9042434
Tak,Thailand,16.8839901,99.1258498,17.8678208,99.4891245,15.1807556,97.7423139
Mount Isa,Australia,-20.7255748,139.4927085,-20.7213732,139.496382,-20.7302659,139.4894131
Kalgoorlie,Australia,-30.749,121.466,-30.7354077,121.4812666,-30.7682477,121.4562011
Famagusta,Cyprus,35.1149116,33.919245,35.1610736,33.9834379,35.0777482,33.8844967
Xanthi,Greece,41.1413533,24.939821,41.2134033,25.1000213,41.0593541,24.7833654
Mandalay,Myanmar,21.9588282,96.0891032,22.0261394,96.1404102,21.8545804,96.0112381
Ciudad del Carmen,Mexico,18.6504879,-91.8074586,18.6730532,-91.7460396,18.6278438,-91.8507642
Bhagalpur,India,25.3478004,86.9824288,25.5105209,87.5549696,25.0552196,86.643158
College Station  TX,United States,30.627977,-96.3344068,30.658246,-96.1966031,30.5234559,-96.386719
Alabang,Philippines,14.4183645,121.0384987,14.4289332,121.053131,14.4044033,121.0316982
Decatur  IL,United States,39.8403147,-88.9548001,39.9249639,-88.803049,39.786783,-89.0331211
Aurora  IL,United States,41.7605849,-88.3200715,41.8221908,-88.2048429,41.6797539,-88.4085949
Westminster  CA,United States,33.7513419,-117.9939921,33.773616,-117.9446671,33.720017,-118.0430951
Stavropol,Russia,45.0454764,41.9683431,45.122323,42.1331719,44.9677239,41.859002
Lucca,Italy,43.8430785,10.5027198,43.9596447,10.5752988,43.7581466,10.3602158
Lizzano,Italy,40.390035,17.4475973,40.4055521,17.4600391,40.3842906,17.4322274
Evansville  IN,United States,37.9715592,-87.5710898,38.0568899,-87.450011,37.935588,-87.637548
Providence  RI,United States,41.8239891,-71.4128343,41.861571,-71.3696939,41.772414,-71.472667
Tonbridge,United Kingdom,51.195043,0.27568,51.2273904,0.3175054,51.1749616,0.235359
Winchester,United Kingdom,51.059771,-1.310142,51.0931018,-1.2801654,51.0351854,-1.3614179
Palakkad,India,10.7867303,76.6547932,10.8292806,76.7024231,10.7470536,76.6053915
Somerville  MA,United States,42.3875968,-71.0994968,42.418118,-71.0729949,42.372966,-71.1345009
Halle,Netherlands,51.9904752,6.4288122,52.0427622,6.4755506,51.9697341,6.3810937
Aruba,Aruba,12.52111,-69.968338,12.6306179,-69.8644638,12.406093,-70.070114
Tavira,Portugal,37.1335906,-7.6430019,37.1629396,-7.569614,37.0958797,-7.7004597
Harrisonburg va,United States,38.4495688,-78.8689155,38.489258,-78.8242529,38.389363,-78.9181119
Springfield  IL,United States,39.7817213,-89.6501481,39.874049,-89.5684858,39.6536259,-89.7731769
Moses Lake,United States,47.1301417,-119.2780771,47.2047559,-119.187665,47.058512,-119.347815
Karmiel,Israel,32.914671,35.292417,32.9300919,35.3623609,32.8924931,35.260689
Duluth  GA,United States,34.0028786,-84.1446376,34.0332821,-84.094771,33.9669978,-84.18216
Ouagadougou,Burkina Faso,12.3714277,-1.5196603,12.4495679,-1.4236093,12.2674162,-1.6500773
Jerez de la Frontera,Spain,36.6850064,-6.1260744,36.7105491,-6.0919444,36.6646622,-6.1540263
Ibague,Colombia,4.444676,-75.242438,4.467374,-75.101591,4.357205,-75.2719641
North Brunswick  NJ,United States,40.4525163,-74.4766712,40.4779429,-74.414895,40.4131129,-74.531476
Udine,Italy,46.0710668,13.2345794,46.1009263,13.2920833,46.0111984,13.1962414
Rangoon,Myanmar,16.8660694,96.195132,17.0788151,96.3432311,16.7288268,95.9957885
Livermore  CA,United States,37.6818745,-121.7680088,37.7323279,-121.6966592,37.628038,-121.8483899
Ragusa,Italy,36.9125163,14.6821048,37.0435807,14.8756711,36.7723124,14.4387141
Blacksburg  VA,United States,37.2295733,-80.4139393,37.2769271,-80.3785218,37.183976,-80.4803879
Cuneo,Italy,44.3844766,7.5426711,44.4309618,7.6039188,44.3532038,7.5084587
Springfield  OR,United States,44.0462362,-123.0220289,44.0954591,-122.87973,44.027244,-123.0508959
Kokomo  IN,United States,40.486427,-86.1336033,40.5346509,-86.0913639,40.4188701,-86.1843931
Brunswick  ME,United States,43.9140162,-69.9669961,43.975778,-69.8570721,43.816598,-70.0878829
Yaroslavl,Russia,57.6260744,39.8844708,57.775458,39.9977531,57.529459,39.7312811
Watertown  NY,United States,43.9747838,-75.9107565,43.9958449,-75.8545659,43.948989,-75.9480161
Danbury  CT,United States,41.394817,-73.4540111,41.463994,-73.401364,41.3267949,-73.5434249
Chattanooga  TN,United States,35.0456297,-85.3096801,35.2136671,-85.0517979,34.9829239,-85.425584
Bujumbura,Burundi,-3.361378,29.3598782,-3.2973383,29.4093703,-3.4532631,29.3013954
Yangon,Myanmar,16.8660694,96.195132,17.0788151,96.3432311,16.7288268,95.9957885
Kingston,Canada,44.2311717,-76.4859544,44.4802019,-76.233523,44.199518,-76.712866
Galveston  TX,United States,29.3013479,-94.7976958,29.3993991,-94.623898,29.067156,-95.1227298
Helsingor,Denmark,56.030787,12.592127,56.0624198,12.6245311,56.0065105,12.4546868
Bellingham  WA,United States,48.7519112,-122.4786854,48.818784,-122.398049,48.68784,-122.524571
Tempe  AZ,United States,33.4255104,-111.9400054,33.463984,-111.8772261,33.3198608,-111.978976
Avon  CO,United States,39.6330673,-106.5222196,39.6682219,-106.4443681,39.6236479,-106.5558961
Astoria  OR,United States,46.1878841,-123.8312534,46.2129049,-123.7384949,46.1701319,-123.891331
Banepa,Nepal,27.6332252,85.5277488,27.6490067,85.5401087,27.6178396,85.5083943
Murrieta  CA,United States,33.5539143,-117.2139232,33.641557,-117.1182851,33.5133629,-117.278596
Juneau  AK,United States,58.3019444,-134.4197222,58.9749719,-133.176444,57.795075,-135.219128
Pavia,Italy,45.1847248,9.1582069,45.2099335,9.2073721,45.1655946,9.1044182
Eden Prairie  MN,United States,44.8546856,-93.470786,44.8921511,-93.398438,44.798763,-93.5209309
Biratnagar,Nepal,26.4524746,87.271781,26.5106342,87.3053294,26.3857907,87.2382849
Indonesia,Indonesia,-0.789275,113.921327,6.2169999,141.0425,-11.1082999,94.7351
Birganj,Nepal,27.0449005,84.8672171,27.1110898,84.9360123,26.9838021,84.8100115
Geraldton,Australia,-28.7773715,114.6149715,-28.762781,114.6261428,-28.7886325,114.596259
Butwal,Nepal,27.6873608,83.4323375,27.7499367,83.5039042,27.6141892,83.3611679
Zhengzhou,China,34.746611,113.625328,34.9895057,114.2209615,34.2621095,112.721177
Dhangadhi,Nepal,28.685244,80.621591,28.7559214,80.6738948,28.6349314,80.5381966
Williamsburg  VA,United States,37.2707022,-76.7074571,37.3102838,-76.664357,37.247037,-76.742487
Hangzhou,China,30.274085,120.15507,30.5665161,120.7219451,29.1887572,118.3449334
Bamenda,Cameroon,5.9630513,10.1591213,6.003145,10.2070413,5.9296427,10.1208653
Frederick  MD,United States,39.4142688,-77.4105409,39.4885432,-77.3602331,39.392472,-77.4781722
Westport,Ireland,53.8021307,-9.5143467,53.80824,-9.5016299,53.7919801,-9.5350601
Douala,Cameroon,4.0510564,9.7678687,4.1139663,9.8191167,3.9578412,9.6644926
Los Gatos  CA,United States,37.2358078,-121.9623751,37.2651429,-121.9057491,37.201544,-121.9973211
La Porte  IN,United States,41.611143,-86.7227195,41.6392558,-86.67363,41.5635658,-86.7554359
Treviso,Italy,45.6668893,12.2430437,45.7030675,12.2873065,45.6374014,12.1828564
Gandia,Spain,38.968032,-0.1844671,38.995477,-0.1490134,38.9573132,-0.1977756
Fort Walton Beach  FL,United States,30.4200708,-86.6170308,30.4717529,-86.5818801,30.401181,-86.672804
Kathmandu,Nepal,27.7172453,85.3239605,27.7499367,85.373168,27.667984,85.2790976
Sunshine Coast,Australia,-26.65,153.066667,-26.3596229,153.1513939,-26.8533421,152.9969196
Springfield  VA,United States,38.7892801,-77.1872036,38.8153929,-77.134491,38.738069,-77.2189471
Lawrenceville  GA,United States,33.9562149,-83.9879625,33.990437,-83.9514349,33.912095,-84.0462911
Lalitpur,Nepal,27.6644011,85.3187914,27.6932547,85.3545427,27.6218323,85.2922882
Knysna,South Africa,-34.0350856,23.0464693,-33.9916461,23.1133499,-34.086636,22.9714831
Pokhara,Nepal,28.237987,83.9955879,28.3284088,84.0572548,28.131036,83.8559818
Fort Smith  AR,United States,35.3859242,-94.3985475,35.449995,-94.2523641,35.263506,-94.43559
Latur,India,18.4087934,76.5603828,18.4390646,76.6238881,18.3672553,76.5100472
Augustow,Poland,53.8434431,22.9796023,53.8849272,23.1532132,53.8050992,22.8664214
Zlin,Czech Republic,49.2244365,17.6627635,49.2990687,17.7911742,49.1630163,17.5618395
Mindelo,Cape Verde,16.8765457,-24.9813499,16.9068094,-24.9550152,16.8585982,-25.0081445
Si Sa Ket,Thailand,15.1186009,104.3220095,15.5683691,104.9076399,14.3422348,103.9019555
Tweed Heads,Australia,-28.1786656,153.5370011,-28.1633067,153.586296,-28.3440154,153.46348
Praia,Cape Verde,14.93305,-23.5133267,14.9727297,-23.4706162,14.9001654,-23.5428429
Shepparton,Australia,-36.383333,145.4,-36.3207199,145.4319338,-36.4260697,145.3519059
Noumea,New Caledonia,-22.2558234,166.4505243,-22.2162913,166.5041114,-22.3124234,166.3856221
Texarkana  AR,United States,33.4417915,-94.0376881,33.515201,-93.915956,33.3520769,-94.0432019
Ramallah,Palestinian Territory,31.9037641,35.2034184,31.9320403,35.2274053,31.8826614,35.1843588
Denton  TX,United States,33.2148412,-97.1330683,33.358306,-97.0238129,33.116875,-97.2664899
Flic En Flac,Mauritius,-20.2995348,57.3634236,-20.2750295,57.3731803,-20.3180271,57.3625159
Jhansi,India,25.4484257,78.5684594,25.5192067,78.6355019,25.3630291,78.4890747
Lawrence  KS,United States,38.9716689,-95.2352501,39.0336011,-95.16656,38.913376,-95.3352939
Sangli,India,16.8523973,74.5814773,16.8902202,74.6289252,16.8183444,74.5392752
Ashburton,New Zealand,-43.9083813,171.7485672,-43.845443,171.7884161,-43.9448804,171.6522461
Auckland,New Zealand,-36.8484597,174.7633315,-36.660571,175.2871371,-37.0654751,174.4438016
Blenheim,New Zealand,-41.5134425,173.9612498,-41.4884163,173.9932369,-41.5697552,173.8723791
Cambridge,New Zealand,-37.891119,175.4671792,-37.839634,175.551067,-37.960052,175.4029764
Christchurch,New Zealand,-43.5320544,172.6362254,-43.3907789,172.80892,-43.6354841,172.3892344
Dunedin,New Zealand,-45.8787605,170.5027976,-45.811635,170.6836916,-45.9337525,170.370546
Gisborne,New Zealand,-38.662334,178.017649,-38.6219639,178.1153541,-38.710757,177.9373069
Hamilton,New Zealand,-37.7870012,175.279253,-37.704092,175.3455766,-37.846191,175.184271
Invercargill,New Zealand,-46.4131866,168.3537731,-46.3586084,168.4588175,-46.5036592,168.2931882
Lower Hutt,New Zealand,-41.2091655,174.9080557,-41.132855,175.0870747,-41.437897,174.847839
Manukau,New Zealand,-36.9941017,174.87266,-36.9782353,174.8896956,-37.0005946,174.8611211
Nelson,New Zealand,-41.2706319,173.2839653,-41.2228385,173.342576,-41.347096,173.189612
New Plymouth,New Zealand,-39.0556253,174.0752278,-38.9950069,174.1921242,-39.1100215,174.0001264
Palmerston North,New Zealand,-40.3523065,175.6082145,-40.288726,175.7071963,-40.417773,175.552863
Rotorua,New Zealand,-38.1368478,176.2497461,-38.0344076,176.4421939,-38.2816122,176.166792
Tauranga,New Zealand,-37.6877975,176.1651295,-37.6020556,176.561571,-37.7847869,176.0722855
Timaru,New Zealand,-44.3969718,171.2549729,-44.331749,171.2732111,-44.4260301,171.174058
Upper Hutt,New Zealand,-41.1244327,175.0707834,-40.9493459,175.3203244,-41.2262077,174.9593963
Doylestown  PA,United States,40.3101063,-75.1298939,40.327776,-75.105509,40.297905,-75.1485831
Wanganui,New Zealand,-39.9300887,175.0478901,-39.9103208,175.0601468,-39.9415113,175.035922
Charleston  SC,United States,32.7764749,-79.9310512,32.973586,-79.7971659,32.6685048,-80.14379
Wellington,New Zealand,-41.2864603,174.776236,-41.126285,174.9106252,-41.3624551,174.613084
Hyannis  MA,United States,41.6524911,-70.2881124,41.6650646,-70.2708264,41.6314151,-70.3034965
Whakatane,New Zealand,-37.9534115,176.9908015,-37.9405403,177.015279,-38.0100762,176.9545984
Whangarei,New Zealand,-35.7251117,174.323708,-35.6480123,174.387688,-35.7756169,174.1878757
Al Ain,United Arab Emirates,24.1301619,55.8023118,24.3699361,56.0149955,24.0160482,55.4787378
Fort Collins  CO,United States,40.5852602,-105.084423,40.6392729,-104.98208,40.474044,-105.153224
Parnu,Estonia,58.3858079,24.4965768,58.4163846,24.604497,58.3416207,24.4516529
Nelson BC,Canada,49.4928119,-117.2948343,49.5182549,-117.26131,49.47258,-117.3146701
Imphal,India,24.8170111,93.9368439,24.8755247,93.9943299,24.7367765,93.87849
Cordoba,Spain,37.8881751,-4.7793835,37.9272788,-4.7461769,37.8558932,-4.8227937
Foshan,China,23.021479,113.121436,23.5734509,113.3934285,22.6422438,112.3908185
Panevezys,Lithuania,55.7347915,24.3574773,55.7718708,24.4332758,55.688991,24.235199
Ao Nang,Thailand,8.0362834,98.8328141,8.0908475,98.8661112,7.6116513,98.7558902
Siauliai,Lithuania,55.9349085,23.3136823,55.9715387,23.429086,55.8410099,23.227657
Zhongshan,China,22.516999,113.392725,22.7726021,113.6920427,22.201038,113.1570142
Valletta,Malta,35.8989085,14.5145528,35.9036629,14.5207773,35.8932982,14.5055526
Yalova,Turkey,40.654895,29.284186,40.6677471,29.3222531,40.619459,29.2101229
Ajman,United Arab Emirates,25.4052165,55.5136433,25.450004,55.644483,25.3570543,55.4218416
N'djamena,Chad,12.1348457,15.0557415,12.1801019,15.1484305,12.0603346,14.9664874
Eden NSW,Australia,-37.066667,149.9,-36.9415301,149.9479437,-37.097078,149.8402524
Lake Charles  LA,United States,30.2265949,-93.2173758,30.272203,-93.1288749,30.1245011,-93.316857
Sialkot,Pakistan,32.4924769,74.5310403,32.5377524,74.5949628,32.4531734,74.4838334
Rock Hill  SC,United States,34.9248667,-81.0250784,35.0148121,-80.9281009,34.8708381,-81.1252191
Ilford,United Kingdom,51.556619,0.076251,51.6136693,0.1292526,51.5436547,0.0401098
Cotacachi,Ecuador,0.3071217,-78.2647004,0.3133663,-78.2533836,0.2907073,-78.2874585
Jhongli City,Taiwan,24.9721514,121.2053963,25.0285002,121.2668923,24.9250665,121.1514872
Folkestone,United Kingdom,51.081397,1.169456,51.1051872,1.2212356,51.0716403,1.117001
Ventura  CA,United States,34.274646,-119.2290316,34.3714917,-119.1452588,34.233439,-119.3523163
Devonport,Australia,-41.1770585,146.3451775,-41.1580537,146.3674253,-41.1928149,146.3219379
Saipan,Northern Mariana Islands,15.1515153,145.7297891,15.288113,145.8298699,15.0925451,145.690054
Cornwall  ON,Canada,45.0212762,-74.730345,45.085779,-74.665384,45.0044169,-74.848328
Gaza,Palestinian Territory,31.3546763,34.3088255,31.6008014,34.5672855,31.2196903,34.2101001
Sonderberg,Denmark,54.913811,9.792178,55.0100968,9.8714346,54.8892361,9.5829321
Tunbridge Wells,United Kingdom,51.132377,0.263695,51.1630561,0.3102619,51.1069912,0.2233234
Bansko,Bulgaria,41.8404241,23.485653,41.8492321,23.498526,41.8221672,23.4753046
Viana do Castelo,Portugal,41.6918275,-8.8344101,41.7605686,-8.7483575,41.6714037,-8.8693403
Aschaffenburg,Germany,49.9806625,9.1355554,50.0212787,9.238003,49.9200614,9.0802454
Sunny Beach,Bulgaria,42.6883305,27.7139182,42.7095371,27.7356461,42.6659181,27.7108776
Comox  BC,Canada,49.6735133,-124.9282659,49.729127,-124.8635299,49.664119,-124.9504921
Medford  OR,United States,42.3265152,-122.8755949,42.398388,-122.777142,42.288787,-122.911108
Sioux City  IA,United States,42.4999942,-96.4003069,42.565428,-96.302499,42.3822938,-96.4989969
Ridgecrest  CA,United States,35.6224561,-117.6708966,35.6809941,-117.616195,35.5638911,-117.7058889
Lae,Papua New Guinea,-6.7155252,146.999905,-6.6842148,147.0376683,-6.7433728,146.9532968
Vung Tau,Vietnam,10.4113797,107.136224,10.4847736,107.2117996,10.3219036,107.0343019
Abidjan,Ivory Coast,5.3599517,-4.0082563,5.4634126,-3.8352585,5.2334876,-4.1240715
Port Moresby,Papua New Guinea,-9.4780123,147.1506542,-9.4684685,147.1582135,-9.4855678,147.143571
Rogers  AR,United States,36.3320196,-94.1185366,36.40587,-94.079499,36.265266,-94.241444
Angeles,Philippines,15.1449853,120.5887029,15.1862756,120.6380488,15.1062749,120.4808794
Nellore,India,14.4425987,79.986456,14.4794365,80.0341557,14.3784833,79.9272538
Antipolo,Philippines,14.6254827,121.1244847,14.7818538,121.3852358,14.5494202,121.1061831
Bacolod,Philippines,10.6407389,122.9689565,10.7231886,123.1092739,10.5693284,122.8941822
Libertyville  IL,United States,42.2830786,-87.9531303,42.3246399,-87.9248499,42.2452289,-88.0226221
Baguio,Philippines,16.4023332,120.5960071,16.4361881,120.6323503,16.3627625,120.5452001
Batangas,Philippines,13.9450336,121.1312012,14.22979,121.4706881,13.526222,120.5691601
Butuan,Philippines,8.9475377,125.5406234,9.050226,125.7214021,8.7401928,125.4434931
Bowling Green  OH,United States,41.3747744,-83.6513229,41.414595,-83.5999618,41.349198,-83.6986011
Cabanatuan,Philippines,15.4865047,120.973393,15.5645242,121.0878895,15.4352808,120.8741604
Parramatta,Australia,-33.815,151.001111,-33.803202,151.0292114,-33.826719,150.9882541
Zanesville  OH,United States,39.9403453,-82.0131924,40.022864,-81.977672,39.9086779,-82.0540449
Calamba,Philippines,14.1876712,121.1250825,14.2379289,121.2020086,14.1384484,121.0304546
Reading  PA,United States,40.3356483,-75.9268747,40.371134,-75.890512,40.296401,-75.960089
Caloocan,Philippines,14.7565784,121.0449768,14.787331,121.098969,14.6330317,120.9604979
Skovde,Sweden,58.3902782,13.8461208,58.437518,13.9103311,58.3630159,13.8094438
Cebu,Philippines,10.607936,123.8857747,11.523836,124.5695951,9.411481,123.2995301
Davao,Philippines,7.190708,125.455341,7.5682037,125.6803201,6.9385257,125.2218246
Ivano-Frankivsk,Ukraine,48.922633,24.711117,48.95365,24.758544,48.8698961,24.675714
Mantova,Italy,45.1564168,10.7913751,45.1863062,10.8060815,45.1372793,10.7404198
General Santos,Philippines,6.1163861,125.171618,6.3185456,125.2703619,5.9563606,125.0446701
Iloilo,Philippines,10.7201501,122.5621063,10.7818569,122.6027869,10.6779834,122.4939538
Middlesex  NJ,United States,40.572603,-74.4926541,40.593371,-74.4694459,40.5553239,-74.527025
Puerto de la Cruz,Spain,28.411413,-16.5449611,28.4209595,-16.528225,28.3973022,-16.5599679
Punta del Este,Uruguay,-34.9368789,-54.9281496,-34.9116252,-54.866581,-34.9738916,-54.9569821
Lucena,Philippines,13.9413957,121.6234471,13.9900802,121.7027183,13.8880509,121.5556313
Chelmsford,United Kingdom,51.7355868,0.4685497,51.7619945,0.5233852,51.6897874,0.4348426
Makati,Philippines,14.554729,121.0244452,14.5800008,121.0675067,14.5291846,120.998873
Lulea,Sweden,65.584819,22.1567026,65.629758,22.3071683,65.543566,22.057593
Mandaluyong,Philippines,14.5794443,121.0359174,14.6016286,121.0599025,14.5671784,121.0171081
Sibenik,Croatia,43.7350196,15.8952045,43.7906513,15.9448075,43.6925104,15.8300859
Mandaue,Philippines,10.3402623,123.9415518,10.3817491,123.9775438,10.3095289,123.9124781
Fairfax  VA,United States,38.8462236,-77.3063733,38.8716918,-77.268624,38.832797,-77.3350519
Manila,Philippines,14.5995124,120.9842195,14.6390175,121.0261686,14.5539791,120.932951
Albufeira,Portugal,37.0890719,-8.2478796,37.1524547,-8.1269316,37.0718233,-8.3090437
Naga,Philippines,13.6217753,123.1948238,13.6726757,123.3730317,13.6086172,123.1678962
Olongapo,Philippines,14.8386303,120.2842023,14.9408872,120.4461622,14.8220246,120.245755
Pasay,Philippines,14.5377516,121.0013794,14.5616834,121.0352009,14.5010803,120.9786864
Pasig,Philippines,14.5763768,121.0851097,14.6236335,121.1109453,14.5338901,121.0513972
Puerto Del Rosario,Spain,28.500821,-13.8628367,28.5122432,-13.8434781,28.4864416,-13.8802827
Puerto Princesa,Philippines,9.9672163,118.78551,10.3378871,119.2080976,9.5596181,118.3460999
Quezon City,Philippines,14.6760413,121.0437003,14.7780362,121.1346208,14.5898851,120.989787
Juffair,Bahrain,26.212971,50.6028899,26.2167471,50.6098402,26.2088781,50.5969468
Royersford  PA,United States,40.1842688,-75.5379639,40.1948509,-75.526929,40.1746809,-75.5491739
Algarve,Portugal,37.0179538,-7.930834,37.5291306,-7.3933048,36.9617104,-8.9971158
Santa Rosa,Philippines,14.2843023,121.0888928,14.335661,121.130061,14.2242222,121.0463871
Noventa di Piave,Italy,45.6604188,12.5301585,45.6674895,12.545412,45.6465091,12.5131875
Surigao,Philippines,9.7571312,125.5137674,9.9321604,125.7438469,9.6615923,125.4241276
Tacloban,Philippines,11.2543388,124.9616867,11.3435597,125.030594,11.1800233,124.8973846
Marshfield  WI,United States,44.6688524,-90.1717987,44.7070771,-90.124206,44.624261,-90.223008
Almelo,Netherlands,52.3670267,6.6684919,52.3993407,6.7210893,52.3226069,6.5974805
Zamboanga,Philippines,6.9214424,122.0790267,7.4703897,122.4069214,6.8543385,121.8949413
Apia,Samoa,-13.8506958,-171.7513551,-13.8141603,-171.7215443,-13.9056643,-171.8147655
Aspen  CO,United States,39.1910983,-106.8175387,39.219785,-106.8013911,39.1771779,-106.8720581
Nong Khai,Thailand,17.8782803,102.7412638,18.3030927,103.4176285,17.593637,102.0543704
Portland  ME,United States,43.661471,-70.2553259,43.727658,-70.0769348,43.6063629,-70.3460949
Serrai,Greece,41.090923,23.5413198,41.0995376,23.5722419,41.0736347,23.5238672
Saarbrucken,Germany,49.2401572,6.9969327,49.3221392,7.1380426,49.1721753,6.8270341
Carbondale  IL,United States,37.7272727,-89.2167501,37.7620069,-89.151448,37.679608,-89.274569
Rueil-Malmaison,France,48.882767,2.17693,48.895812,2.213394,48.847642,2.147908
Baden,Switzerland,47.47288,8.30809,47.4855001,8.3180342,47.4326116,8.258751
Upington,South Africa,-28.3952677,21.2368084,-28.262197,21.340124,-28.608755,21.07691
Jijel,Algeria,36.8167387,5.7490933,36.8293824,5.8221103,36.7631604,5.6788588
Dublin  OH,United States,40.0992294,-83.1140771,40.1632729,-83.089778,40.0636839,-83.2020691
Tekirdag,Turkey,40.9780919,27.511674,40.9995439,27.6462521,40.920071,27.4698089
Novy Jicin,Czech Republic,49.5943251,18.0135356,49.6429427,18.0915399,49.5370528,17.9590205
Rochester  MN,United States,44.0121221,-92.4801989,44.1075961,-92.388996,43.884379,-92.5733489
Redlands  CA,United States,34.0555693,-117.1825381,34.1016111,-117.0516661,34.0038149,-117.249874
Bled,Slovenia,46.3683266,14.1145798,46.3861596,14.1353007,46.3446751,14.0565934
Grand Forks  ND,United States,47.9252568,-97.0328547,47.969701,-97.0098019,47.860166,-97.195914
Ayia Napa,Cyprus,34.9922836,34.0140113,35.0152005,34.0874219,34.9559113,33.9324546
Ulhasnagar,India,19.2215115,73.1644628,19.2593667,73.1885945,19.1887561,73.1452688
Santa Cruz  CA,United States,36.9741171,-122.0307963,37.0108489,-121.9862189,36.9409339,-122.1087411
Esztergom,Hungary,47.7883949,18.7434452,47.822758,18.882476,47.6925219,18.6554651
Singapore,Singapore,1.352083,103.819836,1.4784001,104.0945001,1.1496,103.594
Fidenza,Italy,44.866279,10.0615953,44.8737117,10.095553,44.8487178,10.0436055
HsinChu,Taiwan,24.8138297,120.9674752,24.8569956,121.0335449,24.7125478,120.8785096
Fargo  ND,United States,46.8771863,-96.7898034,46.976966,-96.7532568,46.7314298,-96.9037708
Ansan,South Korea,37.3218778,126.8308848,37.3771543,126.9397483,37.0626518,126.333561
Wausau  WI,United States,44.9591352,-89.6301221,45.006429,-89.573319,44.918368,-89.7482299
Anyang,South Korea,37.3942527,126.9568209,37.4499668,126.9829804,37.361394,126.8706562
Tyumen,Russia,57.1612975,65.5250172,57.2779429,65.79614,57.070229,65.347859
Busan,South Korea,35.1795543,129.0756416,35.3874414,129.3344242,34.8531186,128.7531524
Cheonan,South Korea,36.815129,127.1138939,36.9733765,127.4204848,36.6205419,127.0097552
Lecco,Italy,45.8565698,9.3976704,45.8870552,9.4243409,45.8150829,9.3780862
Governor's Harbour,Bahamas,25.1962025,-76.2406701,25.2022619,-76.2347746,25.1918548,-76.2527776
Cavite,Philippines,14.2456329,120.8785658,14.4998709,121.0708711,14.063102,120.6209559
Chuncheon,South Korea,37.8813153,127.7299707,38.0924146,128.0277134,37.67501,127.506128
Tsukuba,Japan,36.0834857,140.0766423,36.2367219,140.1732956,35.9473773,139.9957871
Daegu,South Korea,35.8714354,128.601445,36.0172827,128.7632175,35.6071707,128.3497208
Modiin,Israel,31.890267,35.010397,31.932823,35.040839,31.8577261,34.9353009
Daejeon,South Korea,36.3504119,127.3845475,36.4999476,127.5590436,36.1833708,127.2464501
Fethiye,Turkey,36.659246,29.126347,36.6989029,29.176048,36.604737,29.067692
West New York  NJ,United States,40.7878788,-74.0143064,40.796557,-73.9928829,40.774384,-74.0236139
Isle of Wight,United Kingdom,50.6938479,-1.304734,50.7673593,-1.0692214,50.5748606,-1.5865904
Geoje,South Korea,34.8806427,128.6210824,35.0549965,128.8110285,34.6531367,128.4458997
Djibouti,Djibouti,11.825138,42.590275,12.7136973,43.4839,10.9319439,41.759722
Sassuolo,Italy,44.54433,10.7847741,44.5770823,10.8123402,44.5212845,10.7632367
Gwangju,South Korea,35.1595454,126.8526012,35.2589426,127.0229413,35.0508149,126.6449035
Cattolica Eraclea,Italy,37.4408216,13.3938368,37.4480518,13.4019302,37.4357293,13.3833341
Woodbridge  VA,United States,38.6581722,-77.2497049,38.6718591,-77.2240499,38.6009509,-77.2927791
Fort Nelson  BC,Canada,58.8050174,-122.697236,58.8256579,-122.6543131,58.785822,-122.7675831
Incheon,South Korea,37.4562557,126.7052062,38.0026676,126.7936272,37.0028079,124.5981092
Santa Monica  CA,United States,34.0194543,-118.4911912,34.05056,-118.443426,33.966674,-118.5513399
Jeonju,South Korea,35.8242238,127.1479532,35.9023343,127.2362251,35.7285043,126.9977398
Nanaimo  BC,Canada,49.1658836,-123.9400647,49.2586299,-123.8092911,49.097374,-124.064733
Volos,Greece,39.3621896,22.942159,39.3863977,22.9760637,39.3439376,22.9186474
Hilversum,Netherlands,52.2291696,5.1668974,52.2855494,5.2190323,52.1775935,5.1020639
Pyongtaek,South Korea,36.9921075,127.1129451,37.1448626,127.1541478,36.8993825,126.7530107
Katy  TX,United States,29.7857853,-95.8243956,29.8313691,-95.797328,29.7522229,-95.8624519
Seongnam,South Korea,37.4449168,127.1388684,37.4756297,127.1974457,37.3330741,127.0235872
Seoul,South Korea,37.566535,126.9779692,37.7017495,127.1835899,37.4259627,126.7645827
Biloxi  MS,United States,30.3960318,-88.8853078,30.493596,-88.817088,30.359447,-89.034099
Suwon,South Korea,37.2635727,127.0286009,37.353075,127.0904507,37.2245524,126.9254886
Ulsan,South Korea,35.5383773,129.3113596,35.7252482,129.4977041,35.3030728,128.9756829
Pueblo  CO,United States,38.2544472,-104.6091409,38.345385,-104.460868,38.1891058,-104.7208689
Broome  WA,Australia,-17.9614336,122.235852,-17.9436407,122.253155,-17.9777347,122.215952
Sparta,Greece,37.074461,22.430264,37.0865165,22.4412964,37.0604852,22.4179778
Giessen,Germany,50.5840512,8.6784031,50.6352417,8.7641993,50.5263386,8.5557541
Anzio (Rome),Italy,41.4495955,12.6197253,41.5348753,12.6456741,41.4428026,12.5744446
Matera,Italy,40.666379,16.6043199,40.6907831,16.6281972,40.6384299,16.5720606
Aigle,Switzerland,46.3190253,6.970566,46.34157,7.0402,46.2912099,6.93183
Trinitapoli,Italy,41.3543413,16.0875326,41.4417109,16.2006298,41.2811057,15.9364722
Carlsbad  CA,United States,33.1580933,-117.3505939,33.182625,-117.216168,33.0604141,-117.359436
Colombo,Sri Lanka,6.9270786,79.861243,6.9812866,79.8900852,6.8623907,79.8223258
Galle,Sri Lanka,6.0535185,80.2209773,6.0881332,80.2518654,6.0236499,80.1721287
Hazard  KY,United States,37.24954,-83.1932284,37.301153,-83.161242,37.2202309,-83.2397289
Gampaha,Sri Lanka,7.0873101,80.0143656,7.1068408,80.0507641,7.0560045,79.9738622
Addis Ababa,Ethiopia,8.9806034,38.7577605,9.0856549,38.9002073,8.8406988,38.6560823
Maceio - Alagoas,Brazil,-9.6498558,-35.7089201,-9.3546424,-35.5580273,-9.7160923,-35.8158491
Jaffna,Sri Lanka,9.6614981,80.0255465,9.6938708,80.0578452,9.6460443,79.9990082
St Albans,United Kingdom,51.752725,-0.339436,51.7760986,-0.2569791,51.7183527,-0.3716195
Manassas  VA,United States,38.7509488,-77.4752667,38.7814139,-77.4475099,38.707904,-77.5266778
Lake Orion  MI,United States,42.7844752,-83.2396612,42.7898118,-83.2286196,42.7750213,-83.2601208
Kecskemet,Hungary,46.8963711,19.6896861,47.0012541,19.8515029,46.769863,19.5066109
Kandy,Sri Lanka,7.2905715,80.6337262,7.3305871,80.6596685,7.2585035,80.5918944
Bahia de Caraquez,Ecuador,-0.6186619,-80.4273644,-0.5929079,-80.394516,-0.6771025,-80.4363155
Ascoli Piceno,Italy,42.8536043,13.5749442,42.8681651,13.6656375,42.8376024,13.552394
Usti nad Labem,Czech Republic,50.6611164,14.0531456,50.7220975,14.1411294,50.5804528,13.9416053
Kurunegala,Sri Lanka,7.4729813,80.3547286,7.5291488,80.4164028,7.4320919,80.299158
Matara,Sri Lanka,5.95492,80.5549561,5.9693241,80.5972454,5.9346603,80.5042506
Boras,Sweden,57.721035,12.939819,57.7675071,13.0422379,57.681879,12.8121008
Williamsport  PA,United States,41.2411897,-77.0010786,41.2642699,-76.981545,41.2180199,-77.095566
Torrevieja,Spain,37.9975875,-0.6962853,38.048156,-0.6473471,37.9410638,-0.7618812
Negombo,Sri Lanka,7.2007968,79.8736754,7.2772705,79.9001312,7.1016264,79.8163752
Zhuhai,China,22.270978,113.576678,22.4436552,114.3257575,21.8063359,113.0848246
Nuwara Eliya,Sri Lanka,6.9497166,80.7891068,6.9898532,80.8216953,6.9128792,80.7401987
Paso Robles  CA,United States,35.6368759,-120.6545022,35.690263,-120.5286831,35.5768469,-120.7078089
Vrsac,Serbia,45.1181926,21.2944883,45.2197149,21.3966036,44.9987656,21.2384177
Blumenau - Santa Catarina,Brazil,-26.9166207,-49.0717429,-26.6129828,-49.0124752,-27.1326077,-49.2009905
Libreville,Gabon,0.4161976,9.4672676,0.5387513,9.5388795,0.2836693,9.3303797
Wuerzburg,Germany,49.7913044,9.9533548,49.8454619,10.0144287,49.7106843,9.8716285
Battambang,Cambodia,13.09573,103.2022055,13.1586385,103.2306718,13.0292272,103.0813693
Tuxtla Gutierrez,Mexico,16.7516009,-93.1029939,16.8069979,-93.0388178,16.6849972,-93.2203218
Ibiza,Spain,39.0200099,1.4821482,39.1182704,1.6215117,38.8304155,1.213264
Katoomba,Australia,-33.7125,150.311944,-33.6718098,150.3300856,-33.7360678,150.2608246
Kaohsiung,Taiwan,22.6272784,120.3014353,23.4717267,121.0490147,20.5170001,116.6665
Keelung,Taiwan,25.1276033,121.7391833,25.1956281,121.8084506,25.0524664,121.6267973
Midland  MI,United States,43.6155825,-84.2472116,43.6836799,-84.153922,43.5652769,-84.3184831
Taipei,Taiwan,25.0329636,121.5654268,25.2103038,121.6659421,24.9605084,121.4570603
Bangi,Malaysia,2.89672,101.78204,2.900089,101.7863751,2.893384,101.7793598
Bangkok,Thailand,13.7563309,100.5017651,13.955111,100.938408,13.4940881,100.3278136
Chiang Mai,Thailand,18.7060641,98.9817163,18.8434085,99.0512218,18.7000955,98.8617327
Martinsburg  WV,United States,39.4562099,-77.9638869,39.4853369,-77.9415249,39.4372339,-78.0244569
Melbourne  FL,United States,28.0836269,-80.6081089,28.199865,-80.5746241,28.035096,-80.7404849
Chiang Rai,Thailand,19.9071044,99.8309885,20.1326452,100.0253553,19.6189652,99.4524057
Chon Buri,Thailand,13.3611431,100.9846717,13.5893563,101.7168862,12.5086232,100.6470747
Hat Yai,Thailand,7.0086202,100.4746823,7.1871344,100.6086141,6.7731685,100.1908605
Lincoln,United Kingdom,53.230688,-0.540579,53.2548035,-0.4926213,53.1817882,-0.6183716
Khon Kaen,Thailand,16.4321938,102.8236214,16.5326792,102.9123456,16.3550785,102.7278409
Accra,Ghana,5.6037168,-0.1869644,5.6684305,-0.060339,5.5139869,-0.2991199
Pensacola  FL,United States,30.421309,-87.2169149,30.5105949,-87.1261481,30.3631529,-87.25934
Nakhon Ratchasima,Thailand,14.9738493,102.083652,14.9980426,102.1401165,14.9367194,102.0313626
Nakhon Sawan,Thailand,15.6987382,100.11996,15.7706029,100.198217,15.6068153,100.0442511
Alexandria  VA,United States,38.8048355,-77.0469214,38.845011,-77.0372879,38.785216,-77.144359
Nonthaburi,Thailand,13.8591084,100.5216508,13.8952042,100.5503983,13.8161564,100.4763022
Kalamazoo  MI,United States,42.2917069,-85.5872286,42.332752,-85.5307821,42.2155639,-85.6635149
Phitsanulok,Thailand,16.8211238,100.2658516,16.84105,100.293535,16.792816,100.242159
Phuket,Thailand,7.9519331,98.3380884,8.1999143,98.4618483,7.4607607,98.2580093
New Bedford  MA,United States,41.6362152,-70.934205,41.745747,-70.878749,41.58184,-70.9770829
Rayong,Thailand,12.707434,101.1473517,13.163471,101.8312551,12.5047265,100.984673
Samut Prakan,Thailand,13.5990961,100.5998319,13.7169169,100.9639206,13.4785244,100.4444578
Bridport,United Kingdom,50.7335769,-2.758301,50.7450041,-2.7375166,50.7129535,-2.7766978
Salo,Finland,60.3900183,23.1171797,60.4099928,23.1652274,60.3696366,23.0920759
Cape Coast,Ghana,5.13151,-1.2794744,5.1654035,-1.2263702,5.0988521,-1.3068582
Udon Thani,Thailand,17.3646969,102.8158924,17.4501585,102.8883843,17.2869237,102.7128173
West Chester  PA,United States,39.9606643,-75.6054882,39.9740101,-75.588142,39.94636,-75.62312
Miri,Malaysia,4.399493,113.9913832,4.600224,114.196294,3.299205,113.4207691
Dili,Timor-Leste,-8.5568557,125.5603143,-8.5377256,125.6291083,-8.5751071,125.5107451
Chesterfield  MI,United States,42.6960659,-82.7994194,42.7208429,-82.7292771,42.6302339,-82.859674
Piraeus (Pireas),Greece,37.9430112,23.646956,37.9658729,23.6736555,37.9263881,23.5712241
Nuku'alofa,Tonga,-21.1393418,-175.204947,-21.121795,-175.158654,-21.1620689,-175.2365485
Kumasi,Ghana,6.6666004,-1.6162709,6.7959613,-1.4996338,6.5842097,-1.7325783
Bikaner,India,28.0229348,73.3119159,28.0641037,73.3750248,27.9787122,73.2640563
Powell River  BC,Canada,49.8352352,-124.5247062,49.908119,-124.487039,49.791458,-124.603574
Hastings,United Kingdom,50.854259,0.573453,50.8948284,0.65896,50.8409123,0.5006111
Port Vila,Vanuatu,-17.7332512,168.3273245,-17.6923017,168.3543652,-17.7815849,168.2903023
Ujjain,India,23.1793013,75.7849097,23.215594,75.8384299,23.1224033,75.756011
Valparaiso  IN,United States,41.4730948,-87.0611412,41.512036,-86.9974599,41.4388139,-87.109371
Bradenton  FL,United States,27.4989278,-82.5748194,27.522849,-82.4861309,27.455408,-82.688454
Besancon,France,47.237829,6.0240539,47.3197439,6.0836499,47.2006871,5.9408869
Acheres,France,48.960796,2.0700219,48.9892321,2.1790361,48.946294,2.049298
Kiryat Motzkin,Israel,32.838202,35.079523,32.860562,35.094719,32.823027,35.069148
Cucuta,Colombia,7.888527,-72.503093,8.430731,-72.3462721,7.724801,-72.6081191
Takoradi,Ghana,4.9015794,-1.7830973,4.9577947,-1.7348958,4.8715346,-1.8201256
Da Lat,Vietnam,11.9404192,108.4583132,12.002635,108.5906696,11.8051867,108.3107758
Tamale,Ghana,9.4329186,-0.8484524,9.4837309,-0.7844067,9.3590923,-0.9030677
Leon,Mexico,21.1250077,-101.6859605,21.2134227,-101.5617887,21.0304049,-101.7702342
Da Nang,Vietnam,16.0544068,108.2021667,16.0951345,108.2354165,15.999203,108.1779956
Ulyanovsk,Russia,54.3181598,48.3837914,54.40669,48.681747,54.2156651,48.2506919
Albert Lea  MN,United States,43.6478006,-93.3686555,43.702109,-93.298355,43.604098,-93.4190221
Fredrikstad,Norway,59.2205369,10.9347012,59.2781549,11.0351918,59.1745533,10.8650352
Roatan,Honduras,16.3297608,-86.5299673,16.4311794,-86.1902776,16.2668222,-86.6030452
Battle Creek  MI,United States,42.3211522,-85.1797142,42.3594329,-85.131951,42.246071,-85.298024
Hanoi,Vietnam,21.0277644,105.8341598,21.0503801,105.8764459,20.9950991,105.7974815
Ramnicu Valcea,Romania,45.0996753,24.3693179,45.139657,24.3852712,45.0659434,24.3183231
Ho Chi Minh City,Vietnam,10.8230989,106.6296638,11.1602136,107.0265769,10.3493704,106.3638784
Marquette  MI,United States,46.5475825,-87.3955954,46.721566,-87.3642127,46.4989531,-87.614453
Trenton  NJ,United States,40.2170534,-74.7429384,40.248298,-74.728904,40.183809,-74.819507
Nha Trang,Vietnam,12.2387911,109.1967488,12.3755509,109.3829728,12.1433894,109.1100312
Marburg,Germany,50.8021728,8.7667933,50.8587298,8.8581858,50.7378724,8.6274421
Albany  OR,United States,42.6525793,-73.7562317,42.7223788,-73.723263,42.61379,-73.898099
Tuscaloosa  AL,United States,33.2098407,-87.5691735,33.4588661,-87.2426289,33.114897,-87.6615889
Grahamstown,South Africa,-33.3106292,26.5255946,-33.2668731,26.613405,-33.369549,26.4794769
Lorient,France,47.7482524,-3.3702449,47.774454,-3.3501088,47.724196,-3.41052
Bathurst,Australia,-33.4192822,149.5775008,-33.4036917,149.5946627,-33.4342572,149.5617663
Vaxjo,Sweden,56.8790044,14.8058522,56.9426471,14.872364,56.8365509,14.7159192
Annapolis  MD,United States,38.9784453,-76.4921829,39.002911,-76.469805,38.9420269,-76.5395839
Sheboygan  WI,United States,43.7508284,-87.71453,43.797622,-87.695532,43.6912369,-87.7654249
Kilkenny,Ireland,52.6541454,-7.2447879,52.67698,-7.20547,52.63111,-7.2731599
Gujarat,India,22.258652,71.1923805,24.705709,74.4764881,20.127954,68.162834
Pocatello  ID,United States,42.8713032,-112.4455344,42.932958,-112.360301,42.804238,-112.6317161
Orange  NSW,Australia,-33.283333,149.1,-33.1641714,149.1577478,-33.3379134,148.9657788
Kennewick  WA,United States,46.2112458,-119.1372338,46.2404668,-119.08742,46.1601741,-119.2666989
Newport Beach  CA,United States,33.6189101,-117.9289469,33.67192,-117.78349,33.535371,-117.988741
Roznov pod Radhostem,Czech Republic,49.4585261,18.1430308,49.5168993,18.2036538,49.415002,18.1088451
Trumbull  CT,United States,41.2428563,-73.2006639,41.2992178,-73.1406539,41.220596,-73.2752601
Eldoret,Kenya,0.5142775,35.2697802,0.5788287,35.3146823,0.4446843,35.2237418
Danville  CA,United States,37.8215929,-121.9999606,37.8468559,-121.891768,37.779857,-122.027307
Killeen  TX,United States,31.1171194,-97.7277959,31.14056,-97.651593,31.021491,-97.822125
Rincon,Puerto Rico,18.3401514,-67.2499459,18.3755697,-67.181695,18.2967075,-67.2712999
Mariehamn,Aland Islands,60.0970945,19.9348339,60.1288966,19.965772,60.0602122,19.9196257
Abu Halifa,Kuwait,29.1271757,48.1250245,29.1379112,48.1372994,29.1193172,48.1150197
Kericho,Kenya,-0.3688967,35.286286,-0.3522898,35.3020764,-0.3809138,35.2614576
Myrtle Beach  SC,United States,33.6890603,-78.8866943,33.791703,-78.793131,33.647788,-78.9644841
Kisumu,Kenya,-0.0917016,34.7679568,0.0375081,34.9012469,-0.1874538,34.5750903
Mwanza,Tanzania,-2.5164305,32.9174517,-2.4342968,32.9982823,-2.5725184,32.873212
Meru,Kenya,0.0514721,37.6456042,0.065918,37.6656818,0.0308132,37.6213932
Stenungsund,Sweden,58.0678388,11.8294346,58.103684,11.890088,58.038663,11.7975519
Mombasa,Kenya,-4.0434771,39.6682065,-3.9516645,39.7633773,-4.118713,39.569149
Durres,Albania,41.3245904,19.4564686,41.3809305,19.5148087,41.2817411,19.4179058
Nairobi,Kenya,-1.2920659,36.8219462,-1.164744,37.0493746,-1.4448631,36.6454191
Elbasan,Albania,41.11023,20.0866554,41.1308961,20.1270677,41.0875028,20.0506784
Geneva  IL,United States,41.8875281,-88.3053525,41.89891,-88.262317,41.863467,-88.3975662
Fier,Albania,40.727504,19.5627596,40.7418271,19.58004,40.7114023,19.5426392
Nakuru,Kenya,-0.3030988,36.080026,-0.2083106,36.1972372,-0.4233131,35.9604836
Fuzhou,China,26.074508,119.296494,26.6343779,120.4065648,25.2498625,118.3820906
Thika,Kenya,-1.0387569,37.0833753,-1.002193,37.1640015,-1.0818315,37.022905
Fano,Italy,43.8398164,13.0194201,43.8635895,13.0543927,43.8166281,12.9877684
Neuchatel,Switzerland,46.9899874,6.9292732,47.06389,6.99177,46.9254,6.89341
Korce,Albania,40.6140785,20.7778071,40.6366389,20.7976342,40.5985741,20.762229
Kefalonia,Greece,38.1753675,20.5692179,38.493795,21.1130528,38.056728,20.3367466
Ternopil,Ukraine,49.553517,25.594767,49.592608,25.655226,49.5041011,25.5401121
Mianyang  Sichuan,China,31.467495,104.678946,33.0419895,105.7262288,30.7062211,103.7487628
Crystal Lake  IL,United States,42.2411344,-88.3161965,42.277042,-88.2718259,42.1893109,-88.4227941
Richmond  KY,United States,37.7478572,-84.2946539,37.794517,-84.24014,37.6235191,-84.3420199
Dothan  AL,United States,31.2232313,-85.3904888,31.333962,-85.2943218,31.12383,-85.518849
Maseru,Lesotho,-29.3632188,27.5143603,-29.272605,27.5997162,-29.4010271,27.4344263
Norman  OK,United States,35.2225668,-97.4394777,35.348324,-97.1769179,35.1453179,-97.547822
Ponta Delgada,Portugal,37.7428301,-25.6805868,37.7572799,-25.6432217,37.7326431,-25.7136726
Secunda,South Africa,-26.5157792,29.1913918,-26.476257,29.2401449,-26.5982039,29.156843
Prescott  AZ,United States,34.5400242,-112.4685025,34.6798379,-112.3777821,34.512494,-112.529959
Timmins  ON,Canada,48.4758208,-81.3304953,48.711336,-80.809484,48.276874,-81.728295
Erie  PA,United States,42.1292241,-80.085059,42.153531,-80.003376,42.077238,-80.138518
Punta Gorda,Belize,16.098935,-88.8094906,16.1066794,-88.7998294,16.0904749,-88.8220167
Sarande,Albania,39.8592119,20.0271001,39.8857015,20.0435258,39.8490077,19.9695827
Shumen,Bulgaria,43.2712398,26.9361286,43.3144123,27.0506347,43.2250909,26.8972271
Pau,France,43.2951,-0.370797,43.3580329,-0.294777,43.285778,-0.392537
Monrovia,Liberia,6.2907432,-10.7605239,6.3311975,-10.7209933,6.2597063,-10.8183626
Knutsford,United Kingdom,53.3005939,-2.371833,53.3161599,-2.3452129,53.2845639,-2.4011287
Shkoder,Albania,42.0692985,19.5032559,42.0965346,19.537983,42.0324324,19.3796252
Bismarck  ND,United States,46.8083268,-100.7837392,46.8670479,-100.688513,46.751104,-100.8455962
Tirana,Albania,41.3275459,19.8186982,41.3668411,19.8820782,41.2951233,19.7535682
Goa,India,15.2993265,74.123996,15.799917,74.3405329,14.8945089,73.684082
Batumi  Ajara,Georgia,41.6167547,41.6367455,41.6744024,41.6989088,41.5308768,41.5593052
Vlore,Albania,40.4660668,19.491356,40.4912342,19.5100021,40.4103918,19.4530106
Hagerstown  MD,United States,39.6417629,-77.7199932,39.6736209,-77.672271,39.5999039,-77.773136
Andorra La Vella,Andorra,42.5063174,1.5218355,42.513564,1.5353385,42.4966062,1.5053926
Lumut  Perak,Malaysia,4.236302,100.6322198,4.3120749,100.6732491,4.181082,100.5908069
L'Aquila,Italy,42.3498479,13.3995091,42.388588,13.4348911,42.3381815,13.336641
Wigan,United Kingdom,53.5450645,-2.6325074,53.5730433,-2.6003478,53.5014838,-2.70243
Ames  IA,United States,42.0307812,-93.6319131,42.076253,-93.5542299,41.975428,-93.698523
Bregenz,Austria,47.50075,9.74231,47.53415,9.8078399,47.4800101,9.6683501
Dornbirn,Austria,47.4124,9.74379,47.44948,9.84851,47.28435,9.69253
York  PA,United States,39.9625984,-76.727745,39.9910931,-76.6991889,39.942798,-76.76259
Benghazi,Libya,32.0947711,20.1879106,32.2094962,20.2884299,31.9760544,19.9997079
Feldkirch,Austria,47.24128,9.6019,47.2997299,9.6327399,47.2045,9.5309099
Graz,Austria,47.070714,15.439504,47.1351393,15.5340499,47.01204,15.3495298
Innsbruck,Austria,47.2692124,11.4041024,47.3599301,11.45593,47.21098,11.3016499
Nagercoil  Tamil Nadu,India,8.1832857,77.4118996,8.2064783,77.458763,8.1361319,77.3713016
Klagenfurt,Austria,46.6364598,14.3122246,46.70822,14.41526,46.57443,14.21025
Arlington  TX,United States,32.735687,-97.1080656,32.8171209,-97.037008,32.5865651,-97.2338181
Linz,Austria,48.30694,14.28583,48.37876,14.40908,48.2113699,14.24573
Misratah,Libya,32.3196827,15.1025075,32.4306869,15.2752876,32.1993655,14.9191761
Grand Bay,Mauritius,-20.0074193,57.584421,-19.9882718,57.6109314,-20.0350478,57.5513649
Salzburg,Austria,47.80949,13.05501,47.85431,13.1268799,47.75131,12.9859801
Windsor,United Kingdom,51.4817279,-0.613576,51.4904886,-0.5871166,51.4641221,-0.6641712
Ostia,Italy,41.7311182,12.2862694,41.7448403,12.3475952,41.6999451,12.2344325
Vienna,Austria,48.2081743,16.3738189,48.3230999,16.5774999,48.1182699,16.1826199
Villach,Austria,46.60856,13.85062,46.66851,13.9788401,46.5585,13.6940001
Akureyri,Iceland,65.6884921,-18.1261693,65.7305599,-18.0621561,65.6079886,-18.2086371
Tripoli,Libya,32.8872094,13.1913383,32.9019297,13.2234836,32.8639441,13.1531881
Red Bank  NJ,United States,40.3470543,-74.0643065,40.363686,-74.0498909,40.3362489,-74.090631
Silver Spring  MD,United States,38.9906657,-77.026088,39.037769,-76.971717,38.9796481,-77.0639719
Royal Leamington Spa,United Kingdom,52.2851905,-1.5200789,52.3143077,-1.4930289,52.2565389,-1.56145
Brest,Belarus,52.0976214,23.7340503,52.1511867,23.8501563,52.0236101,23.5654164
Trapani,Italy,38.0176177,12.537202,38.0346077,12.5857631,38.0001964,12.4914419
Maha Sarakham,Thailand,16.0132015,103.1615169,16.6429105,103.503853,15.406028,102.8445023
Hrodna,Belarus,53.6693538,23.8131306,53.7646446,24.0004922,53.6075811,23.7170791
Crema,Italy,45.3699581,9.6782628,45.3929953,9.7393755,45.3382105,9.6284938
Bayreuth,Germany,49.9456399,11.5713346,49.9772605,11.6728261,49.8881912,11.4750831
Buochs,Switzerland,46.9735985,8.420352,46.98398,8.45073,46.9449201,8.3869801
Forli',Italy,44.2227398,12.0407312,44.261818,12.0984988,44.1703434,11.9903296
Minsk,Belarus,53.9045398,27.5615244,53.9715871,28.0641033,53.7961897,27.3753548
Bunbury,Australia,-33.325636,115.6396494,-33.3003755,115.6592175,-33.3373771,115.6251977
Kunming  Yunnan,China,24.880095,102.832892,26.5418462,103.6702503,24.3852006,102.1710881
Antananarivo,Madagascar,-18.8791902,47.5079055,-18.7474855,47.6060772,-19.0278715,47.4189507
Charlottesville  VA,United States,38.0293059,-78.4766781,38.070591,-78.446311,38.0095839,-78.5236368
West Hartford  CT,United States,41.7620842,-72.7420151,41.806599,-72.7135379,41.7186,-72.8000409
Jackson  WY,United States,43.4799291,-110.7624282,43.491205,-110.7377219,43.457833,-110.813473
Arrecife,Spain,28.9651694,-13.5550363,28.9860965,-13.5379479,28.9563835,-13.5765793
Las Pinas,Philippines,14.444546,120.9938736,14.4874003,121.024274,14.3916664,120.9659404
Cosenza,Italy,39.2982629,16.2537357,39.3326104,16.2850572,39.2769898,16.2195601
Youngstown  OH,United States,41.0997803,-80.6495194,41.1390129,-80.567932,41.0499511,-80.711162
London  KY,United States,37.1289771,-84.0832646,37.1522599,-84.0359571,37.0797589,-84.126262
Morristown  NJ,United States,40.7967667,-74.4815438,40.8183609,-74.456181,40.7802309,-74.501444
Aalst,Belgium,50.9378101,4.0409517,50.9948401,4.16388,50.8993501,3.9823401
Squamish  BC,Canada,49.7016339,-123.1558121,49.8743934,-123.0896188,49.6388993,-123.2607653
Antwerp,Belgium,51.2194475,4.4024643,51.3774301,4.49784,51.14334,4.2176001
Trois-Rivieres  QC,Canada,46.3546803,-72.5837866,46.468269,-72.4136952,46.2772621,-72.777884
Brugge,Belgium,51.209348,3.2246995,51.3632982,3.31015,51.15805,3.1341401
Brussels,Belgium,50.8503463,4.3517211,50.91371,4.4822099,50.76369,4.2446001
Xalapa  Veracruz,Mexico,19.5437751,-96.9101806,19.5995077,-96.7989731,19.4845915,-96.9708428
Charleroi,Belgium,50.4108095,4.444643,50.4929701,4.5074999,50.3529,4.34772
Genk,Belgium,50.96613,5.5021,51.0204,5.5952001,50.91304,5.38474
Gent,Belgium,51.0543422,3.7174243,51.1880501,3.8492301,50.97683,3.57974
Sandakan  Sabah,Malaysia,5.839444,118.1171729,6.0695491,118.4385666,5.5015869,117.656815
Hasselt,Belgium,50.93069,5.33248,50.98158,5.4149501,50.86755,5.21198
Nyiregyhaza,Hungary,47.9495324,21.7244053,48.03913,21.844149,47.845661,21.5576691
Kortrijk,Belgium,50.8194776,3.2577263,50.8746101,3.3589901,50.7310001,3.2005799
Leuven,Belgium,50.8798438,4.7005176,50.94403,4.77031,50.82419,4.64055
Murfreesboro  TN,United States,35.8456213,-86.39027,35.960675,-86.3373659,35.7627289,-86.5035319
Mechelen,Belgium,51.0258761,4.4775362,51.07859,4.54893,50.9911199,4.3701001
Mons,Belgium,50.4542408,3.956659,50.51379,4.08487,50.3777601,3.8545399
Alexandroupolis,Greece,40.8457193,25.873962,40.8642199,25.8996343,40.8340509,25.8509864
Augusta  GA,United States,33.4734978,-82.0105148,33.5449331,-81.828336,33.227148,-82.353499
Namur,Belgium,50.4673883,4.8719854,50.5312201,4.98398,50.38738,4.7229
Ostend,Belgium,51.21543,2.928656,51.24375,3.00358,51.18453,2.84001
Roeselare,Belgium,50.9499087,3.1294471,50.99391,3.17846,50.88717,3.06151
Eugene  OR,United States,44.0520691,-123.0867536,44.1326199,-123.0366989,43.9887109,-123.208402
Taglio di Po (Rovigo),Italy,45.005969,12.2080923,45.0127805,12.2308176,44.9794894,12.1977198
Klamath Falls  OR,United States,42.224867,-121.7816704,42.2683349,-121.6983209,42.141155,-121.851278
Sakon Nakhon,Thailand,17.1664211,104.1486055,17.1913109,104.1895558,17.1523371,104.1334662
Blantyre,Malawi,-15.7666707,35.0167866,-15.6822126,35.1090431,-15.8702044,34.952488
Vilvoorde,Belgium,50.9272511,4.4257868,50.9594099,4.4867501,50.8970699,4.3606799
Banja Luka,Bosnia And Herzegovina,44.7721811,17.191,44.8401613,17.3033809,44.7170233,17.108953
Ryazan,Russia,54.6095418,39.7125857,54.807206,39.8542769,54.5286759,39.533484
Bihac,Bosnia And Herzegovina,44.8119628,15.8685645,44.8424816,15.9059715,44.7873178,15.838337
Bijeljina,Bosnia And Herzegovina,44.7569511,19.2150224,44.7952974,19.250064,44.7261254,19.1595553
Pomona  CA,United States,34.055103,-117.7499909,34.1129359,-117.711067,34.018512,-117.828817
Doboj,Bosnia And Herzegovina,44.8004192,18.0602921,44.9980373,18.3670648,44.5693071,17.8940729
Breckenridge  CO,United States,39.4816537,-106.0383518,39.5406379,-106.014379,39.4618461,-106.0720429
Shrewsbury  Shropshire,United Kingdom,52.7073029,-2.7553268,52.7470666,-2.7012735,52.6823379,-2.7981003
Stillwater  OK,United States,36.1156071,-97.0583681,36.2028449,-97.015489,36.0793398,-97.149722
Lilongwe,Malawi,-13.9626121,33.7741195,-13.8624138,33.8478469,-14.0644008,33.7162716
Mostar,Bosnia And Herzegovina,43.3437748,17.8077578,43.3674188,17.8602506,43.3116892,17.7822304
Fayetteville  NC,United States,35.0526641,-78.8783585,35.168061,-78.812737,34.981286,-79.0917259
Sarajevo,Bosnia And Herzegovina,43.8562586,18.4130763,43.9664726,18.5171986,43.820974,18.2487844
Vevey,Switzerland,46.4628333,6.8419192,46.47822,6.86339,46.42097,6.82089
Tuzla,Bosnia And Herzegovina,44.5374611,18.6734688,44.573691,18.7287699,44.5107355,18.622587
Warragul,Australia,-38.1537515,145.9297824,-38.095291,145.9788471,-38.2033643,145.8754946
Zenica,Bosnia And Herzegovina,44.2034392,17.9077432,44.2449718,17.9793649,44.159925,17.8866005
Layyah,Pakistan,30.9647503,70.9399349,30.9898608,70.9731679,30.938042,70.9265758
Blagoevgrad,Bulgaria,42.0208569,23.0943385,42.0296711,23.1195894,41.9978951,23.0698939
Burgas,Bulgaria,42.5047926,27.4626361,42.6139216,27.5458556,42.4391223,27.3580762
Gabrovo,Bulgaria,42.8742212,25.3186837,42.9150995,25.3884394,42.7827688,25.262113
Haskovo,Bulgaria,41.9344366,25.5554462,41.9541525,25.6030698,41.9114011,25.4942471
Alpena  MI,United States,45.0616794,-83.4327528,45.105954,-83.369186,45.041799,-83.476641
Ocala  FL,United States,29.1871986,-82.1400923,29.2267539,-82.061536,29.1210169,-82.2520799
Pernik,Bulgaria,42.6051862,23.0378368,42.6243972,23.1273676,42.5681881,22.9755276
Amarillo  TX,United States,35.2219971,-101.8312969,35.2944749,-101.6536839,35.109459,-101.956197
Pleven,Bulgaria,43.4170423,24.6066847,43.4504952,24.6600647,43.3918598,24.5690017
Plovdiv,Bulgaria,42.1354079,24.7452904,42.1982332,24.8240283,42.0900086,24.6577202
Ruse,Bulgaria,43.8355713,25.9656554,43.8890011,26.0490987,43.754233,25.8704854
Sliven,Bulgaria,42.6816536,26.3228685,42.711123,26.3902393,42.6196377,26.2598866
Sofia,Bulgaria,42.6977082,23.3218675,42.7877752,23.4569049,42.4900111,23.1909885
Jonesboro  AR,United States,35.8422967,-90.704279,35.8933789,-90.551545,35.7486,-90.785927
Stara Zagora,Bulgaria,42.4257769,25.6344644,42.4457088,25.6686784,42.3928015,25.5810451
Green Bay  WI,United States,44.519159,-88.019826,44.574659,-87.8411731,44.4712319,-88.139816
Varna,Bulgaria,43.2140504,27.9147333,43.3094528,28.0559078,43.1002294,27.8299093
Veliko Tarnovo,Bulgaria,43.0756739,25.6171514,43.1103064,25.6943964,43.0578391,25.5718485
Cabo San Lucas  Baja California Sur,Mexico,22.8905327,-109.9167371,22.9202876,-109.8942559,22.872165,-109.9717403
Bamako,Mali,12.6392316,-8.0028892,12.7342735,-7.8759453,12.4909088,-8.1150808
Vraca,Bulgaria,43.2102375,23.5528803,43.2297109,23.5920197,43.1850586,23.5066083
Bjelovar,Croatia,45.8987972,16.8423093,45.9414555,16.8717516,45.8710161,16.7865377
Redmond  WA,United States,47.6739881,-122.121512,47.7171189,-122.036733,47.6270218,-122.1645101
Cakovec,Croatia,46.3897383,16.4379653,46.4035515,16.4749664,46.3446626,16.4001645
Karlovac,Croatia,45.4928973,15.5552683,45.5648303,15.6317669,45.4195876,15.4873873
Koprivnica,Croatia,46.1639381,16.8334752,46.1971896,16.8974111,46.1379457,16.7449904
Qingdao  Shandong,China,36.067108,120.382609,37.1491186,121.396713,35.5756014,119.5148251
Ayr  South Ayrshire,United Kingdom,55.458564,-4.629179,55.4848474,-4.5776051,55.4242149,-4.6677211
Kutina,Croatia,45.4792811,16.7763267,45.5196229,16.8106876,45.4109422,16.7026489
Osijek,Croatia,45.5549624,18.6955144,45.5785779,18.7812673,45.5140857,18.5964504
Pula,Croatia,44.8666232,13.8495788,44.9443883,13.9168286,44.8263188,13.7154437
Rijeka,Croatia,45.3270631,14.442176,45.3841597,14.5216359,45.3110602,14.3319921
Stratford  ON,Canada,43.3700007,-80.9822286,43.3989362,-80.9422661,43.338711,-81.0262299
Sesvete,Croatia,45.8272417,16.1112533,45.8505184,16.2045906,45.7773066,16.0760262
Sisak,Croatia,45.4850767,16.3731156,45.5132204,16.432117,45.4359235,16.349325
Slavonski Brod,Croatia,45.1631431,18.0116081,45.2062423,18.0604021,45.111759,17.9366416
Owensboro  KY,United States,37.7719074,-87.1111676,37.8100329,-87.0523779,37.710659,-87.196074
Solin,Croatia,43.5422549,16.4919632,43.569786,16.5086079,43.5280213,16.4455656
Velika Gorica,Croatia,45.7142122,16.0752431,45.7555368,16.1015443,45.6418198,16.032148
Vinkovci,Croatia,45.2879058,18.8056781,45.3264732,18.8475574,45.2032692,18.7357258
Vukovar,Croatia,45.3452377,19.0010204,45.394413,19.0819746,45.2881855,18.9166952
Flanders  NJ,United States,40.8418677,-74.7161489,40.8704638,-74.681705,40.811862,-74.7685389
Zadar,Croatia,44.119371,15.2313648,44.187006,15.3022377,44.0829053,15.1955705
Zagreb,Croatia,45.8150108,15.981919,45.9395392,16.1069727,45.7408527,15.8216904
Saguenay,Canada,48.4280529,-71.0684923,48.567604,-70.7034583,48.189332,-71.5637731
Bentonville  AR,United States,36.3728538,-94.2088172,36.4376958,-94.151533,36.2971489,-94.326117
Larnaca,Cyprus,34.9002535,33.6231723,34.957248,33.6547388,34.845499,33.5857308
Limassol,Cyprus,34.7071301,33.0226174,34.7401137,33.0705419,34.643368,32.9856777
Anderson  SC,United States,34.5034394,-82.6501332,34.562411,-82.6004849,34.486345,-82.6879129
Chittoor,India,13.217176,79.1003289,13.2443185,79.1336846,13.188411,79.0789431
Nicosia,Cyprus,35.1855659,33.3822764,35.2323172,33.4762967,35.1521879,33.3185077
Brno,Czech Republic,49.1950602,16.6068371,49.294485,16.7278532,49.1096552,16.4280679
Havirov,Czech Republic,49.7803923,18.4306254,49.8197227,18.4969035,49.7555034,18.3947589
Jihlava,Czech Republic,49.3983782,15.5870415,49.4751357,15.6624406,49.3336921,15.4987976
Karlovy Vary,Czech Republic,50.2318521,12.8719616,50.2667286,12.9437083,50.1670623,12.7849207
Kladno,Czech Republic,50.1416986,14.1067465,50.1823661,14.177871,50.1166986,14.0415518
Warner Robins  GA,United States,32.6130007,-83.624201,32.664217,-83.576181,32.522715,-83.747754
Liberec,Czech Republic,50.76628,15.0543387,50.8244004,15.1469891,50.7078286,14.9523506
Most,Czech Republic,50.5015549,13.6329122,50.5662104,13.703991,50.462777,13.4947604
Albi,France,43.9250853,2.1486413,43.969493,2.2118179,43.888488,2.0527828
Subic Bay Freeport Zone,Philippines,14.7690037,120.3204873,14.8511131,120.3861237,14.7370344,120.2420799
Olomouc,Czech Republic,49.593778,17.2508787,49.6573504,17.3960271,49.5329452,17.1630437
Columbia  MO,United States,38.9517053,-92.3340724,39.02944,-92.228194,38.863548,-92.4334839
Opava,Czech Republic,49.9406598,17.8947989,49.9939829,17.9964488,49.8477767,17.7905329
Terre Haute  IN,United States,39.4667034,-87.4139092,39.5285359,-87.276917,39.4015709,-87.4697208
Ostrava,Czech Republic,49.8209226,18.2625243,49.9137292,18.3763648,49.7257537,18.0984242
Pardubice,Czech Republic,50.0343092,15.7811994,50.0773774,15.8912722,49.9920055,15.6250687
Benevento,Italy,41.1297613,14.7826208,41.1475621,14.8103246,41.098359,14.7350548
Plzen,Czech Republic,49.7384314,13.3736371,49.805786,13.4758465,49.6776084,13.2680001
Prague,Czech Republic,50.0755381,14.4378005,50.177403,14.7067945,49.9419363,14.2244533
Prerov,Czech Republic,49.4564788,17.45023,49.5288773,17.5010603,49.4157764,17.3698339
Aalborg,Denmark,57.0488195,9.921747,57.0791679,10.0656796,56.9745056,9.7498684
Arhus,Denmark,56.162939,10.203921,56.2376354,10.2554381,56.1185725,10.1085108
Copenhagen,Denmark,55.6760968,12.5683371,55.7270937,12.7342654,55.615441,12.4533824
Esbjerg,Denmark,55.476466,8.459405,55.5939521,8.6339774,55.4510874,8.29298
Nouakchott,Mauritania,18.0735299,-15.9582372,18.1614863,-15.8803537,17.9728548,-16.0267681
Fredericia,Denmark,55.5689298,9.749517,55.6459105,9.8596073,55.5091887,9.5097269
Herning,Denmark,56.138557,8.967322,56.2819932,9.1831637,55.9786648,8.760286
Hillerod,Denmark,55.927909,12.300806,55.9976788,12.3907669,55.8753069,12.1702449
Holstebro,Denmark,56.361534,8.621727,56.429305,8.9156071,56.2126981,8.4112108
Horsens,Denmark,55.8581302,9.8475881,55.8868782,9.8970711,55.8224092,9.780441
Beau Bassin,Mauritius,-20.2230305,57.468383,-20.1898941,57.4802459,-20.2644097,57.4477159
Kolding,Denmark,55.495973,9.4730519,55.5717289,9.5983679,55.4112175,9.3548312
Jacksonville  NC,United States,34.7540524,-77.4302414,34.815196,-77.307847,34.6383188,-77.4799009
Odense,Denmark,55.403756,10.40237,55.4803016,10.576853,55.288194,10.2187859
Randers,Denmark,56.460584,10.036539,56.5568062,10.2853787,56.3727861,9.7018033
Ringsted,Denmark,55.442952,11.791372,55.5324662,12.0508438,55.3554592,11.640076
Roskilde,Denmark,55.64191,12.087845,55.7588478,12.2491735,55.5814391,11.9134378
Raanana,Israel,32.184781,34.871326,32.2095311,34.889902,32.1697441,34.8367079
Silkeborg,Denmark,56.176362,9.5549216,56.268422,9.7597592,56.0968493,9.3717848
Skive,Denmark,56.5651232,9.0309083,56.6501979,9.0886346,56.4043852,8.8512758
Svendborg,Denmark,55.067434,10.607282,55.1336151,10.7173671,54.9429003,10.3606049
Clearwater  FL,United States,27.9658533,-82.8001026,28.050086,-82.648608,27.935115,-82.846189
Vejle,Denmark,55.7113112,9.5363541,55.8197827,9.6851306,55.609789,9.3426909
Viborg,Denmark,56.452027,9.396347,56.5302259,9.5634978,56.340799,9.0545674
Haapsalu,Estonia,58.9482486,23.5370534,58.9631518,23.574317,58.9045259,23.4857899
Curepipe,Mauritius,-20.3170872,57.5265289,-20.2971679,57.5484643,-20.3392349,57.4977753
Keila,Estonia,59.3082327,24.4258028,59.3266058,24.442234,59.2972619,24.3307736
Trikala,Greece,39.5557317,21.7678951,39.5778757,21.8004941,39.528989,21.7456236
Vallejo  CA,United States,38.1040864,-122.2566367,38.173496,-122.1661499,38.0599179,-122.3879329
Spring Hill  FL,United States,28.4831682,-82.5369872,28.533947,-82.4585378,28.4336971,-82.63986
Rakvere,Estonia,59.3465821,26.365315,59.367007,26.3975042,59.3235593,26.3256315
Bend  OR,United States,44.0581728,-121.3153096,44.1231839,-121.248579,43.999089,-121.3807099
Columbia  MD,United States,39.2037144,-76.8610462,39.2400389,-76.786965,39.1476489,-76.9432
Tallinn,Estonia,59.4369608,24.7535746,59.591577,24.9262889,59.351809,24.5501939
Charleston  WV,United States,38.3498195,-81.6326234,38.4057589,-81.55931,38.2811389,-81.7277771
Tartu,Estonia,58.3776252,26.7290063,58.4109399,26.798116,58.33902,26.667076
Viljandi,Estonia,58.367135,25.5974277,58.382197,25.6375409,58.3301599,25.549822
Voru,Estonia,57.8460723,26.9986977,57.8644569,27.0403469,57.806607,26.9620317
Yuma  AZ,United States,32.6926512,-114.6276916,32.732294,-114.45913,32.4790669,-114.684986
Monte Carlo,Monaco,43.7400718,7.4266436,43.746362,7.4308149,43.735744,7.421126
Shelby Township  MI,United States,42.670782,-83.0329934,42.715905,-82.973317,42.6242079,-83.0954359
Port Louis,Mauritius,-20.1608912,57.5012222,-20.124287,57.5659989,-20.2016751,57.4275541
Winchester  VA,United States,39.1856597,-78.1633341,39.204733,-78.1369529,39.13097,-78.200731
Smithtown  NY,United States,40.8559314,-73.2006687,40.898738,-73.158555,40.82523,-73.270526
Quatre Bornes,Mauritius,-20.2674718,57.4796981,-20.2386383,57.5246287,-20.3044439,57.4409653
Hilo  HI,United States,19.7070942,-155.0884869,19.7491299,-154.9925729,19.6240661,-155.1872961
Fayetteville  AR,United States,36.0625795,-94.1574263,36.1487811,-94.0266818,35.9901639,-94.2980599
Dobrich,Bulgaria,43.57259,27.8272606,43.608704,27.8607443,43.5418468,27.763096
Tamarin,Mauritius,-20.3377911,57.3750805,-20.3267568,57.3816573,-20.3433917,57.3663366
Vacoas,Mauritius,-20.2973067,57.496673,-20.2580787,57.5513649,-20.3481117,57.4674004
Ramat Hasharon,Israel,32.137793,34.840278,32.158889,34.86803,32.11189,34.795732
Agadir,Morocco,30.4277547,-9.5981072,30.4702104,-9.4871341,30.3692836,-9.6683551
Blackpool,United Kingdom,53.8175053,-3.0356748,53.8782396,-2.9858799,53.7725781,-3.0625248
Cartagena,Spain,37.6256827,-0.9965839,37.6397102,-0.9642879,37.5951131,-1.0127269
Casablanca,Morocco,33.5731104,-7.5898434,33.649659,-7.4582757,33.495279,-7.716524
Yuzhno-Sakhalinsk,Russia,46.9641127,142.7347556,47.0389709,142.7689538,46.890641,142.6779039
Fez,Morocco,34.0181246,-5.0078451,34.075377,-4.927883,33.9725487,-5.0755978
Labuan,Malaysia,5.2831456,115.230825,5.392795,115.2691651,5.24075,115.1565149
Kenitra,Morocco,34.2540503,-6.5890166,34.3104052,-6.5178107,34.2233904,-6.682949
Marrakech,Morocco,31.6294723,-7.9810845,31.7162668,-7.8876258,31.5529761,-8.1280804
Placencia,Belize,16.5211599,-88.3712796,16.5265579,-88.3634233,16.5084338,-88.3737658
Prince Rupert  BC,Canada,54.3150367,-130.3208187,54.338083,-130.2437961,54.19392,-130.3634291
Rabat,Morocco,33.9715904,-6.8498129,34.0349463,-6.791642,33.9034914,-6.9228836
Settat,Morocco,32.9924242,-7.6222665,33.0173469,-7.5755907,32.9683838,-7.6637275
Tangier,Morocco,35.7594651,-5.8339543,35.825747,-5.7185555,35.7008015,-5.9503841
Midland  TX,United States,31.9973456,-102.0779146,32.1317899,-102.0178141,31.926224,-102.226661
Missoula  MT,United States,46.8787176,-113.996586,46.950046,-113.909851,46.802597,-114.126483
Tetouan,Morocco,35.5888995,-5.3625516,35.6139067,-5.2952385,35.5562292,-5.4377174
Waukesha  WI,United States,43.0116784,-88.2314813,43.059607,-88.17385,42.9509759,-88.3048138
Palaio Faliro  Athens,Greece,37.9253691,23.7006539,37.943376,23.7241463,37.9173402,23.6785776
Akersberga,Sweden,59.4802773,18.310783,59.5107489,18.366597,59.449913,18.254625
Torshavn,Faroe Islands,62.007864,-6.7909816,62.033646,-6.7521071,61.996593,-6.8469715
Trinidad,Trinidad And Tobago,10.691803,-61.222503,11.4004,-60.4508999,9.9930001,-61.9725001
Maputo,Mozambique,-25.891968,32.6051351,-25.8085457,32.6980592,-25.9839715,32.5233079
Worthing,United Kingdom,50.81787,-0.372882,50.8632588,-0.3302723,50.8017363,-0.4465566
Espoo,Finland,60.2054911,24.6559001,60.3636105,24.8505714,60.0499087,24.4996566
Helsinki,Finland,60.1698557,24.938379,60.2978389,25.2544848,59.9224887,24.7828757
Joensuu,Finland,62.6010155,29.7635719,63.0476069,31.09423,62.2503894,29.6130609
Pullman  WA,United States,46.7297771,-117.1817377,46.753341,-117.092859,46.707617,-117.2116579
Albany  GA,United States,31.5785074,-84.155741,31.623491,-84.0586409,31.5222981,-84.273217
Castel,Guernsey,49.4633023,-2.5966393,49.4888888,-2.566497,49.444402,-2.6268044
Kuopio,Finland,62.89797,27.6781725,63.4034033,28.4576294,62.592254,26.8900281
Lahti,Finland,60.9826749,25.6612096,61.1029709,26.1691146,60.8866914,25.5407804
Nampula,Mozambique,-15.1266347,39.2687161,-15.0862734,39.3180005,-15.1570817,39.2114776
Lappeenranta,Finland,61.0549929,28.1896628,61.284438,28.7765938,60.6664984,27.7096137
Oulu,Finland,65.0120888,25.4650773,65.5643426,26.770696,64.8443082,24.1149421
Pori,Finland,61.4851393,21.7974178,61.749986,22.7250354,61.3838973,20.8745452
Porvoo,Finland,60.3931919,25.6652739,60.5511467,26.2712917,59.9281962,25.3292777
Crikvenica,Croatia,45.173583,14.6915049,45.1952446,14.7324441,45.1643881,14.6729579
Rovaniemi,Finland,66.5039478,25.7293905,67.1845251,27.3266785,66.1553745,24.7368712
Tampere,Finland,61.4977524,23.7609535,61.8365736,24.1183841,61.4272817,23.5422013
Turku,Finland,60.4518126,22.2666303,60.5304531,22.3819782,60.3336119,22.06644
Billings  MT,United States,45.7832856,-108.5006904,45.853159,-108.435863,45.7106799,-108.691506
Vaasa,Finland,63.095089,21.6164564,63.1787129,22.2427884,62.9596481,21.028037
Indjija,Serbia,45.0485391,20.0808092,45.1029106,20.1352359,45.0240612,20.01827
Vantaa,Finland,60.2933524,25.0377686,60.4011366,25.1930624,60.237142,24.7465122
Aix-en-provence,France,43.529742,5.447427,43.62598,5.506365,43.445968,5.269529
Amiens,France,49.894067,2.295753,49.9502879,2.3457469,49.8468359,2.223528
Angers,France,47.478419,-0.563166,47.5263839,-0.508143,47.437393,-0.617726
Cedar Rapids  IA,United States,41.9778795,-91.6656232,42.0686969,-91.5508061,41.8615811,-91.774548
Bordeaux,France,44.837789,-0.57918,44.9167039,-0.533309,44.810752,-0.638973
Piacenza,Italy,45.0474228,9.6865687,45.1135195,9.8238379,44.9923233,9.5997565
Boulogne-billancourt,France,48.8396952,2.2399123,48.853513,2.262718,48.8214679,2.222912
Brest,France,48.390394,-4.486076,48.459562,-4.4302621,48.3572541,-4.5689391
Caen,France,49.182863,-0.370679,49.2162688,-0.3307391,49.1529869,-0.4137789
Dijon,France,47.322047,5.04148,47.377463,5.101999,47.286299,4.962443
Grenoble,France,45.188529,5.724524,45.2143261,5.753081,45.154005,5.6780039
Duhok,Iraq,36.8679054,42.9488574,36.8901929,43.1103516,36.8184925,42.879467
Le Havre,France,49.49437,0.107929,49.540047,0.1955711,49.451574,0.0667979
Le Mans,France,48.00611,0.199556,48.0358609,0.255099,47.927934,0.136286
Cabarete,Dominican Republic,19.7509228,-70.4144209,19.7805961,-70.3948975,19.7419447,-70.4534985
Lille,France,50.62925,3.057256,50.661248,3.1263549,50.600887,2.967966
Mykonos (Mikonos),Greece,37.4467354,25.3288845,37.5006266,25.5785389,37.3672274,25.1982898
Limoges,France,45.833619,1.261105,45.928607,1.317546,45.788675,1.146249
Lyon,France,45.764043,4.835659,45.808425,4.898393,45.707486,4.7718489
Marseille,France,43.296482,5.36978,43.3911601,5.5323519,43.169621,5.228641
Metz,France,49.1193089,6.1757156,49.148856,6.25681,49.06085,6.136002
Montpellier,France,43.610769,3.876716,43.6532999,3.941279,43.566744,3.807044
Worcester  MA,United States,42.2625932,-71.8022934,42.3411789,-71.7315589,42.209691,-71.8839171
Mulhouse,France,47.750839,7.335888,47.7834759,7.368728,47.721896,7.282521
Nantes,France,47.218371,-1.553621,47.2958269,-1.4783261,47.1806171,-1.6417861
Nimes,France,43.836699,4.360054,43.92288,4.449917,43.7414381,4.2357901
Paris,France,48.856614,2.3522219,48.9021449,2.4699208,48.815573,2.224199
Lleida,Spain,41.6175899,0.6200146,41.6396481,0.6497572,41.5970365,0.5901125
San Martin de Los Andes,Argentina,-40.1572103,-71.3524436,-40.1140441,-71.237564,-40.1642618,-71.3616775
Reims,France,49.258329,4.031696,49.3031741,4.1241371,49.2039281,3.98604
Rennes,France,48.117266,-1.6777926,48.1549701,-1.624367,48.076861,-1.752542
Sollentuna,Sweden,59.4541218,17.9242952,59.499291,18.018998,59.396776,17.8289581
Rouen,France,49.443232,1.099971,49.465241,1.152109,49.4172921,1.030238
Strasbourg,France,48.5734053,7.7521113,48.6462221,7.8360451,48.492005,7.6881429
Jaco Beach,Costa Rica,9.6116902,-84.629272,9.6238316,-84.6198535,9.5947413,-84.6469759
Toulon,France,43.124228,5.928,43.171673,5.9873831,43.1010491,5.879479
Toulouse,France,43.604652,1.444209,43.6686919,1.515354,43.532708,1.350328
Tours,France,47.394144,0.68484,47.439593,0.737095,47.348942,0.6527849
Tsumeb,Namibia,-19.2443226,17.728092,-19.2175049,17.7465022,-19.2712737,17.6815402
Aachen,Germany,50.7753455,6.0838868,50.8572332,6.2181501,50.6621268,5.9748992
Walvis Bay,Namibia,-22.9389587,14.5247463,-22.9222943,14.5380978,-22.9833241,14.4804801
Augsburg,Germany,48.3705449,10.89779,48.458654,10.959519,48.2581444,10.7633614
Costa Mesa  CA,United States,33.6411316,-117.9186689,33.7024181,-117.8651981,33.624921,-117.954267
Windhoek,Namibia,-22.5608807,17.0657549,-22.4903695,17.1291515,-22.637143,16.9953005
Berlin,Germany,52.5200066,13.404954,52.6754542,13.7611176,52.338234,13.088346
Bielefeld,Germany,52.0302285,8.5324708,52.11477,8.6633885,51.914853,8.3778304
Bochum,Germany,51.4818445,7.2162363,51.5313637,7.3493746,51.4104511,7.1017407
Evora,Portugal,38.5707119,-7.9093074,38.7681961,-7.554935,38.3406813,-8.165741
Bonn,Germany,50.73743,7.0982068,50.7744264,7.2120481,50.6327276,7.0225513
Braunschweig,Germany,52.2688736,10.5267696,52.3575799,10.6433623,52.1868049,10.4124077
Bremen,Germany,53.0792962,8.8016937,53.2289105,8.9908131,53.0111523,8.4817585
Simi Valley  CA,United States,34.2694474,-118.781482,34.323091,-118.6325559,34.2084041,-118.8283749
Gorakhpur,India,26.7346743,83.336188,27.11533,83.6722399,26.21704,83.0776501
Chemnitz,Germany,50.827845,12.9213697,50.9038177,13.0543362,50.7414127,12.727616
Cologne,Germany,50.937531,6.9602786,51.084963,7.1620628,50.8304427,6.7725819
Darmstadt,Germany,49.8728253,8.6511929,49.9538799,8.7497188,49.7956409,8.5599238
Pila,Poland,53.1509671,16.7382266,53.203391,16.8570003,53.065948,16.6622777
Dortmund,Germany,51.5135872,7.4652981,51.6000368,7.6381273,51.4157322,7.3023977
Dresden,Germany,51.0504088,13.7372621,51.1787349,13.9657761,50.9749326,13.5793953
Viterbo,Italy,42.4206766,12.107669,42.4405429,12.1411634,42.4044656,12.0796173
Erfurt,Germany,50.9847679,11.0298799,51.0798955,11.1752701,50.8907853,10.8554009
Beaverton  OR,United States,45.487062,-122.8037102,45.5430158,-122.7434072,45.4262649,-122.867541
Erlangen,Germany,49.5896744,11.0119611,49.6455845,11.0536043,49.5327698,10.9153629
Essen,Germany,51.4556432,7.0115552,51.5342124,7.1376762,51.3476021,6.8943602
Frankfurt,Germany,50.1109221,8.6821267,50.2272095,8.8003977,50.0152145,8.4727299
Freiburg Im Breisgau,Germany,47.9990077,7.8421043,48.0710448,7.9308323,47.9035775,7.6620078
Lima  OH,United States,40.742551,-84.1052256,40.796018,-84.07072,40.6876749,-84.161643
Blacktown,Australia,-33.771,150.9063,-33.747655,150.9277733,-33.8046632,150.8784362
Halle,Germany,51.4969802,11.9688029,51.5436635,12.0892163,51.4021017,11.8555299
Hamburg,Germany,53.5510846,9.9936818,53.7394463,10.3252764,53.3951194,9.7300908
Hanover,Germany,52.3758916,9.7320104,52.4544218,9.9185077,52.304911,9.6044352
Heilbronn,Germany,49.1426929,9.210879,49.2097277,9.3019673,49.0928881,9.0446088
Ingolstadt,Germany,48.7665351,11.4257541,48.8228908,11.50333,48.6838581,11.2559732
Kaiserslautern,Germany,49.4400657,7.7491265,49.4951465,7.8707303,49.3586227,7.6272322
Karlsruhe,Germany,49.0068901,8.4036527,49.0912684,8.5416581,48.9404298,8.2774096
Kota Damansara,Malaysia,3.1622148,101.5869321,3.20551,101.6005432,3.149676,101.5706498
Kassel,Germany,51.3127114,9.4797461,51.3694051,9.5701282,51.2603671,9.3511015
Lafayette  LA,United States,30.2240897,-92.0198427,30.296503,-91.969376,30.127487,-92.107762
Kiel,Germany,54.3232927,10.1227652,54.4329274,10.2186004,54.2506983,10.0327536
Koblenz,Germany,50.3569429,7.5889959,50.4095948,7.6964154,50.2829914,7.480694
Krefeld,Germany,51.3387609,6.5853417,51.4055127,6.7062167,51.2857564,6.4779464
Lloydminster,Canada,53.2779625,-110.0061451,53.322285,-109.9548708,53.2480249,-110.091307
Leipzig,Germany,51.3396955,12.3730747,51.448026,12.5506377,51.235539,12.2366321
Zapresic,Croatia,45.8571742,15.8046577,45.8937099,15.8301263,45.8269583,15.7816189
Magdeburg,Germany,52.1205333,11.6276237,52.2282942,11.766403,52.023638,11.5172709
Mainz,Germany,49.9928617,8.2472526,50.0353212,8.3430793,49.8954528,8.1419819
Mannheim,Germany,49.4874592,8.4660395,49.5904894,8.5899901,49.4095912,8.4141602
Abuja,Nigeria,9.0764785,7.398574,9.1866247,7.5555897,8.9220428,7.2331238
Munich,Germany,48.1351253,11.5819806,48.2482197,11.7228755,48.0616018,11.360796
Coeur d'Alene  ID,United States,47.6776832,-116.7804664,47.7449728,-116.730634,47.657828,-116.8535149
Munster,Germany,51.9606649,7.6261347,52.0600197,7.7743617,51.8401511,7.4738326
Nuremberg,Germany,49.4254092,11.0796553,49.5407533,11.2825956,49.3314338,10.983479
Saint Cloud  MN,United States,45.5579451,-94.1632404,45.590595,-94.0364318,45.4560479,-94.2621619
Jagodina,Serbia,43.9777294,21.2572719,44.0053517,21.2932206,43.9453724,21.2262297
Gibsons  BC,Canada,49.3974171,-123.5152222,49.414252,-123.494085,49.381213,-123.53725
Offenbach Am Main,Germany,50.0956362,8.7760843,50.1374098,8.842695,50.0468648,8.722424
Oldenburg,Germany,53.1434501,8.2145521,53.2047664,8.3122766,53.0832715,8.1291927
Muskegon  MI,United States,43.2341813,-86.2483921,43.269701,-86.16936,43.2033791,-86.343694
Osnabruck,Germany,52.2799112,8.0471788,52.3373847,8.1809001,52.2185885,7.929959
Florence  AL,United States,34.79981,-87.677251,34.887619,-87.575818,34.778962,-87.7225189
Paderborn,Germany,51.7189205,8.7575093,51.8009578,8.9005637,51.654255,8.6363014
Pforzheim,Germany,48.8921862,8.6946286,48.9297027,8.8087349,48.819013,8.6247957
Potsdam,Germany,52.3905689,13.0644729,52.5146915,13.1679979,52.3420316,12.8868267
Ibadan,Nigeria,7.3775355,3.9470396,7.5576958,4.0328407,7.2839339,3.7755203
Regensburg,Germany,49.0134074,12.101631,49.2232842,12.4909978,48.7649053,11.6591858
Kannur,India,11.8744775,75.3703662,11.8823017,75.3876686,11.850987,75.3520572
Rostock,Germany,54.0924406,12.0991466,54.2445585,12.2956017,54.0505436,11.9983048
Maringa,Brazil,-23.4209995,-51.9330558,-23.2700128,-51.8414745,-23.5517934,-52.0997428
Moenchengladbach,Germany,51.1804572,6.4428041,51.2478799,6.5365343,51.0833095,6.2910923
Siegen,Germany,50.8838492,8.0209591,50.9512867,8.1279481,50.8114729,7.9216431
Lagos,Nigeria,6.5243793,3.3792057,6.7027984,3.6967278,6.3933511,3.0982732
Stuttgart,Germany,48.7758459,9.1829321,48.8663994,9.3158251,48.6920187,9.0386053
Ulm,Germany,48.4010822,9.9876076,48.4685153,10.0428302,48.3066626,9.8420594
Newton  MA,United States,42.3370413,-71.2092214,42.3679719,-71.1569968,42.2827739,-71.270359
Wiesbaden,Germany,50.0782184,8.2397608,50.1518053,8.386192,49.9931598,8.1105148
Kozani,Greece,40.3005808,21.7898132,40.3117685,21.8067249,40.2863327,21.7751894
Taguig City,Philippines,14.5176184,121.0508645,14.5621517,121.1086357,14.4649239,121.0221692
Wolfsburg,Germany,52.4226503,10.7865461,52.4951103,10.9066238,52.3159605,10.6471806
Wuppertal,Germany,51.2562128,7.1507636,51.3180939,7.3134358,51.1656894,7.0140976
Gibraltar,Gibraltar,36.140751,-5.353585,36.1551188,-5.3345,36.1038999,-5.3721
Naperville  IL,United States,41.7508391,-88.1535352,41.8219749,-88.0884879,41.6701641,-88.2352779
Agrinio,Greece,38.6244719,21.4095934,38.6396299,21.4320232,38.6049968,21.3829849
Athens,Greece,37.9838096,23.7275388,38.0328563,23.7896925,37.9488181,23.6869862
Mangaf,Kuwait,29.1070609,48.1239894,29.1209316,48.1403451,29.0908855,48.1160724
Ayia Paraskevi,Greece,38.0135829,23.8218079,38.0235726,23.8476579,37.9950487,23.8052321
Mountain View  CA,United States,37.3860517,-122.0838511,37.469887,-122.0446721,37.3567599,-122.1178619
Patras,Greece,38.2466395,21.734574,38.2958083,21.7817796,38.2022205,21.709432
Peristeri,Greece,38.0176649,23.6859275,38.0350986,23.7182126,37.9962176,23.6660694
Rhodes,Greece,36.4340533,28.2176379,36.4586052,28.2475278,35.8767211,27.6834947
Tarlac City,Philippines,15.4754786,120.5963492,15.543999,120.6978608,15.4011971,120.5281542
Hisar,India,29.1491875,75.7216527,29.2170548,75.8789635,29.0953272,75.6321144
Pleasanton  CA,United States,37.6624312,-121.8746789,37.702692,-121.7992491,37.620168,-121.956157
Brazzaville,Congo,-0.228021,15.827659,3.707791,18.643611,-5.0964,11.1182001
Budapest,Hungary,47.497912,19.040235,47.6130119,19.334505,47.349415,18.9261011
Debrecen,Hungary,47.5316049,21.6273123,47.6369639,21.8837061,47.4248649,21.4366579
Eger,Hungary,47.9025348,20.3772284,48.001331,20.471507,47.857033,20.3113128
Gyor,Hungary,47.6874569,17.6503974,47.747587,17.80789,47.591275,17.50948
Miskolc,Hungary,48.1034775,20.7784384,48.154998,20.8697789,48.0233119,20.4817199
Sopron,Hungary,47.6816619,16.5844795,47.7590711,16.7485102,47.6267501,16.4215489
Bowral,Australia,-34.479167,150.418056,-34.4525678,150.4908146,-34.5132845,150.3692258
Szeged,Hungary,46.2530102,20.1414253,46.349812,20.3085971,46.115766,19.97234
Szolnok,Hungary,47.1621355,20.1824712,47.264515,20.296315,47.096289,20.0710291
Szombathely,Hungary,47.2306851,16.6218441,47.274314,16.6982231,47.154338,16.5270979
Chatham-Kent,Canada,42.4048028,-82.1910378,42.6514801,-81.329379,41.6765559,-82.5002381
Taoyuan,Taiwan,24.9936281,121.3009798,25.123137,121.4798128,24.5864837,120.9845575
Hafnarfjorour,Iceland,64.0291054,-21.9684626,64.0834231,-21.8136977,63.9801461,-22.1264651
Paducah  KY,United States,37.0833893,-88.6000478,37.105213,-88.5606379,37.0368329,-88.7329
Porto San Giorgio,Italy,43.1801759,13.7929636,43.1989972,13.8095977,43.1615834,13.7810086
Saint-denis,Reunion,-20.8906596,55.4550536,-20.8714434,55.4732966,-20.9216414,55.4317262
Bugibba,Malta,35.9490844,14.4097459,35.95298,14.414878,35.9442597,14.4060374
Newmarket  ON,Canada,44.059187,-79.461256,44.083833,-79.4126239,44.01673,-79.509788
Auburn  AL,United States,32.6098566,-85.4807825,32.730713,-85.404466,32.5250929,-85.572597
Keflavik,Iceland,63.9997549,-22.5582716,64.0249489,-22.5290105,63.9805479,-22.6025678
Saint-pierre,Reunion,-21.3222914,55.5025595,-21.2543518,55.6038665,-21.3632712,55.4027975
Faaborg,Denmark,55.104155,10.228725,55.1991898,10.4275705,55.0037932,10.0698298
Goes,Netherlands,51.5046455,3.8911304,51.5268851,3.9266066,51.4793178,3.8624345
Kigali,Rwanda,-1.9705786,30.1044288,-1.8858746,30.1841457,-2.0237232,30.0249481
Frosinone,Italy,41.6576528,13.6362715,41.955142,14.0276484,41.3013499,12.9918714
Tasmania,Australia,-41.4545196,145.9706648,-39.1296041,148.6166749,-44.0557135,143.708067
Reykjavik,Iceland,64.1265206,-21.8174393,64.1771669,-21.7183826,64.0898138,-21.9865021
Antakya (Antioch),Turkey,36.2022842,36.1613221,36.27726,36.231053,36.16479,36.100205
Rochdale,United Kingdom,53.6097136,-2.1561,53.6707521,-2.1117023,53.5780313,-2.2717896
Yuba City  CA,United States,39.1404477,-121.6169108,39.175446,-121.597591,39.087238,-121.688934
Buckingham,United Kingdom,51.999326,-0.987645,52.0125637,-0.9362141,51.9827519,-1.0043444
Dakar,Senegal,14.7645042,-17.3660286,14.8200203,-17.2463906,14.6419347,-17.536581
Overland Park  KS,United States,38.9822282,-94.6707917,39.044086,-94.60767,38.789242,-94.7610509
Citta di Castello,Italy,43.4577876,12.2319048,43.6173483,12.4348158,43.2814426,12.0727748
Athlone,Ireland,53.4239331,-7.9406898,53.43956,-7.89037,53.4069301,-7.9726401
Carlow,Ireland,52.8365072,-6.9341359,52.85383,-6.8916199,52.81933,-6.95555
Derry,Ireland,54.9966124,-7.3085748,55.0436191,-7.2625988,54.969712,-7.3606922
Edison  NJ,United States,40.5187154,-74.4120953,40.605503,-74.316052,40.470796,-74.4399981
Cork,Ireland,51.8968917,-8.4863157,51.93586,-8.3805799,51.8561501,-8.54552
Drogheda,Ireland,53.717856,-6.3560985,53.73425,-6.2989899,53.69853,-6.38988
Dublin,Ireland,53.3498053,-6.2603097,53.4252101,-6.0439235,53.2234301,-6.4474846
Cuernavaca,Mexico,18.9242095,-99.2215659,19.0015735,-99.1805389,18.8621897,-99.300591
Dundalk,Ireland,53.9979451,-6.405957,54.02587,-6.34662,53.96965,-6.44125
Ennis,Ireland,52.8474255,-8.9887384,52.86793,-8.93751,52.81326,-9.0167599
Galway,Ireland,53.270668,-9.0567905,53.3194705,-8.9548057,53.2483525,-9.1426873
St Croix,Us Virgin Islands,17.7245968,-64.8347992,17.7845419,-64.565497,17.674162,-64.903244
Killarney,Ireland,52.0599353,-9.5044265,52.07281,-9.4801901,52.04827,-9.5350099
Calpe,Spain,38.6436469,0.0456876,38.6746218,0.0859761,38.6285303,0.0107334
Letterkenny,Ireland,54.9558392,-7.7342787,54.99262,-7.68844,54.94366,-7.7636901
Jackson  TN,United States,35.6145169,-88.8139469,35.7562881,-88.756758,35.5402259,-88.9204599
Limerick,Ireland,52.6680204,-8.6304975,52.6886401,-8.5703399,52.6143899,-8.68994
Cyberjaya  Selangor,Malaysia,2.921318,101.6559349,2.9655359,101.6750452,2.8944169,101.62246
Maynooth,Ireland,53.3812896,-6.5918499,53.3915101,-6.57626,53.36823,-6.61254
Mullingar,Ireland,53.5259334,-7.3381378,53.5467,-7.30012,53.5054599,-7.3877801
Cagayan de Oro City,Philippines,8.4542363,124.6318977,8.5210346,124.8184203,8.2439401,124.447031
Navan,Ireland,53.647092,-6.6966605,53.6631241,-6.6646177,53.6328124,-6.7357193
Alessandria,Italy,44.9072727,8.6116796,44.9397498,8.6404936,44.8773148,8.5540221
Sligo,Ireland,54.2766103,-8.4760888,54.2872399,-8.44213,54.24951,-8.5193301
Tralee,Ireland,52.2713096,-9.6999325,52.29248,-9.6610699,52.25176,-9.73684
Jalgaon,India,21.0076578,75.5626039,21.0336378,75.6408262,20.9465309,75.5100203
Concord  CA,United States,37.9779776,-122.0310733,38.0228616,-121.932919,37.9242318,-122.0647051
Waterford,Ireland,52.2593197,-7.1100703,52.2701999,-7.0548699,52.22481,-7.17119
Wexford,Ireland,52.336916,-6.4633381,52.3470099,-6.4464301,52.32044,-6.49995
Walnut Creek  CA,United States,37.9100783,-122.0651819,37.946022,-121.9804709,37.842425,-122.099975
Bhiwadi,India,28.2088218,76.8445999,28.2216102,76.8750393,28.1857546,76.8047977
Chatham,United Kingdom,51.380952,0.52213,51.4061657,0.55947,51.324875,0.4928232
Ancona,Italy,43.6158299,13.518915,43.6315103,13.5498571,43.532833,13.4637957
Bari,Italy,41.1171488,16.8719083,41.1697438,17.0333772,41.0145293,16.7172781
Bergamo,Italy,45.6982642,9.6772698,45.7238489,9.7136328,45.6625158,9.6205463
Bologna,Italy,44.494887,11.3426163,44.5561987,11.4337169,44.4420377,11.2296541
Brescia,Italy,45.5415526,10.2118019,45.5900636,10.2999996,45.4971508,10.1473578
Kearney  NE,United States,40.6993303,-99.0816784,40.742706,-99.0170933,40.660671,-99.1386721
Cagliari,Italy,39.2239017,9.1220945,39.2828334,9.1818385,39.1570959,9.010778
Catania,Italy,37.5078772,15.0830304,37.560876,15.1259397,37.4205463,15.0290963
Ranchi,India,23.3440997,85.309562,23.4503333,85.4368973,23.2360763,85.2057552
Ferrara,Italy,44.8381237,11.619787,44.8746839,11.6641086,44.7977949,11.5487829
San Luis Obispo  CA,United States,35.2827524,-120.6596156,35.3119901,-120.617795,35.233002,-120.7229771
Florence,Italy,43.7695604,11.2558136,43.8329368,11.3278993,43.7269795,11.1540365
Kilmarnock  East Ayrshire,United Kingdom,55.614719,-4.498792,55.6398569,-4.4664905,55.5781885,-4.5400368
Foggia,Italy,41.4621984,15.5446302,41.4795093,15.5835768,41.4346673,15.5183242
Genoa,Italy,44.4056499,8.946256,44.514882,9.065573,44.3790734,8.7160912
Victoria,Seychelles,-4.619143,55.4513149,-4.6128713,55.4571069,-4.6223996,55.4469682
Latina,Italy,41.4675671,12.9035965,41.4864651,12.9582445,41.4379936,12.8445286
Livorno,Italy,43.548473,10.3105674,43.5958939,10.3601034,43.4832059,10.2904644
Aberdeen  SD,United States,45.4646985,-98.4864829,45.495622,-98.3922019,45.430076,-98.5264821
Messina,Italy,38.1938137,15.5540152,38.3015773,15.6361362,38.0546577,15.4656128
Milan,Italy,45.4654219,9.1859243,45.535689,9.2903463,45.3897787,9.0651182
Bemidji  MN,United States,47.4875361,-94.8858492,47.5269,-94.799758,47.4245639,-94.9494299
Modena,Italy,44.647128,10.9252269,44.6941981,10.990284,44.6061562,10.8531802
Roseburg  OR,United States,43.216505,-123.3417381,43.251532,-123.271139,43.1908,-123.401842
Monza,Italy,45.5845001,9.2744485,45.6060649,9.3241301,45.5532596,9.2278433
Naples,Italy,40.8517746,14.2681244,40.9159348,14.3537148,40.7919321,14.1394899
Novara,Italy,45.44693,8.6221612,45.4884906,8.6576135,45.4191674,8.5739484
Padova,Italy,45.4064349,11.8767611,45.4575002,11.9728649,45.3555073,11.809626
Palermo,Italy,38.1156879,13.3612671,38.219548,13.4471566,38.0615392,13.2674205
Parma,Italy,44.801485,10.3279036,44.8395029,10.3842979,44.7554041,10.2727904
Deltona  FL,United States,28.9005446,-81.2636738,28.9635909,-81.151117,28.820875,-81.286065
Perugia,Italy,43.1107168,12.3908279,43.1499405,12.4521977,43.0400963,12.3084506
Montmagny,Canada,46.9801031,-70.5565719,47.031519,-70.426192,46.8776731,-70.6726009
Pescara,Italy,42.4617902,14.2160898,42.4939637,14.2544587,42.4171602,14.1528712
Prato,Italy,43.8777049,11.102228,43.9252112,11.1474862,43.8314126,11.0202649
Ravenna,Italy,44.4183598,12.2035294,44.4405473,12.2342168,44.3841368,12.1668015
Reggio Di Calabria,Italy,38.1113006,15.6472914,38.204364,15.7133153,37.9913949,15.6300618
Pampanga,Philippines,15.079409,120.6199895,15.2718861,120.985538,14.7654161,120.3561269
Reggio Nell'emilia,Italy,44.6989932,10.6296859,44.7482256,10.7245189,44.6550334,10.5520175
Rimini,Italy,44.0678288,12.5695158,44.088576,12.6322536,44.0183507,12.5171204
Rome,Italy,41.9027835,12.4963655,42.0505462,12.7302888,41.769596,12.341707
Salerno,Italy,40.6719402,14.8104424,40.7269905,14.8741779,40.6260365,14.7339981
Sassari,Italy,40.7259269,8.5556826,40.7537418,8.5970261,40.6985242,8.4952695
Siracusa,Italy,37.0754739,15.2865861,37.1056629,15.3012622,37.0526348,15.2405306
Laramie  WY,United States,41.3113669,-105.5911007,41.336008,-105.5279969,41.277327,-105.697316
Taranto,Italy,40.4643606,17.2470303,40.4991197,17.2990258,40.379012,17.2016382
Terni,Italy,42.5636168,12.6426604,42.6010524,12.6876014,42.5230136,12.5685648
Trento,Italy,46.0747793,11.1217486,46.1327915,11.1580189,46.0281314,11.0826925
Trieste,Italy,45.6495264,13.7768182,45.697797,13.8354566,45.6068433,13.7318673
Peoria  IL,United States,40.6936488,-89.5889864,40.844136,-89.5464949,40.651938,-89.698281
Turin,Italy,45.070312,7.6868565,45.1335014,7.7623282,45.0067766,7.5778502
Venice,Italy,45.4408474,12.3155151,45.5779746,12.5966574,45.2311119,12.1668278
Verona,Italy,45.4383842,10.9916215,45.4782665,11.0703201,45.3742342,10.9147425
Centreville  VA,United States,38.8403909,-77.4288769,38.8801439,-77.4019891,38.8096248,-77.4795879
Vicenza,Italy,45.5454787,11.5354214,45.6039311,11.6108189,45.4965127,11.4910099
Saint Helier,Jersey,49.1805019,-2.103233,49.1944015,-2.0905818,49.1678506,-2.1197041
Bohol,Philippines,9.8499911,124.1435427,10.2562529,124.620529,9.4847629,123.719351
Statesboro  GA,United States,32.4487876,-81.7831674,32.4888502,-81.731517,32.3850625,-81.808008
San Marcos  TX,United States,29.8832749,-97.9413941,29.9605819,-97.8419149,29.777154,-98.012087
Tolyatti (Togliatti),Russia,53.5086002,49.4198344,53.597411,49.6743189,53.446411,49.1958661
Groteberg,Curacao,12.1896737,-68.9971777,12.1956183,-68.9900422,12.1852678,-69.0047945
Gainesville  FL,United States,29.6516344,-82.3248262,29.770553,-82.218976,29.601988,-82.420516
Daugavpils,Latvia,55.874736,26.536179,55.955541,26.6361371,55.836144,26.438294
Nanning,China,22.817002,108.366543,24.0329435,109.6216461,22.2041839,107.3293229
Jelgava,Latvia,56.6511091,23.7213541,56.6916349,23.8002769,56.596751,23.623268
Berkeley  CA,United States,37.8715926,-122.272747,37.9058239,-122.234179,37.835727,-122.367781
Gulfport  MS,United States,30.3674198,-89.0928155,30.500328,-89.000714,30.342797,-89.136691
Chapel Hill  NC,United States,35.9131996,-79.0558445,35.972366,-78.9954109,35.869552,-79.083171
Liepaja,Latvia,56.5046678,21.010806,56.6092,21.1057334,56.464691,20.971237
Spruce Pine  NC,United States,35.9154007,-82.0645611,35.928194,-81.9935149,35.8690949,-82.0938421
Cadiz,Spain,36.5270612,-6.2885962,36.5432066,-6.2553346,36.4895662,-6.3095997
New Brunswick,Canada,46.5653163,-66.4619164,48.1735157,-63.6473413,44.2235811,-69.0534721
Napier,New Zealand,-39.4928444,176.9120178,-39.3881549,176.9264419,-39.5704945,176.8103179
Riga,Latvia,56.9496487,24.1051864,57.085921,24.3246659,56.8570279,23.9336591
New Bern  NC,United States,35.108493,-77.0441143,35.159624,-76.9914809,34.9957319,-77.1587031
Lanskroun,Czech Republic,49.9120412,16.6124965,49.9474278,16.6420484,49.8835958,16.5647134
Arezzo,Italy,43.4632839,11.8796336,43.4995733,11.9240635,43.3514366,11.8096337
Dongguan,China,23.020673,113.7518,23.1420506,114.2603125,22.6537024,113.5215419
Krabi,Thailand,8.0862997,98.9062835,8.6816651,99.4129851,7.3984238,98.5748929
San Ramon,Costa Rica,10.0910284,-84.4703933,10.1048386,-84.4582097,10.0766991,-84.4800568
Lawton  OK,United States,34.6035669,-98.3959291,34.6943509,-98.314426,34.51117,-98.5364139
Mandeville  LA,United States,30.3582506,-90.0656311,30.4042821,-90.03701,30.3483019,-90.1255489
Yamuna Nagar,India,30.1290485,77.2673901,30.1519554,77.3089027,30.1123897,77.2315216
Balzers,Liechtenstein,47.0655826,9.5074526,47.08509,9.53973,47.05616,9.4809763
Surrey,United Kingdom,51.3147593,-0.5599501,51.4715328,0.0582163,51.0714964,-0.8489291
Hargeysa,Somalia,9.562389,44.0770134,9.5980691,44.1095878,9.4997307,44.0191206
Brandon  MB,Canada,49.848471,-99.9500904,49.9161159,-99.8055449,49.8111689,-100.007876
